{
"type": "FeatureCollection",
"name": "biocida_ley_7203",
"crs": { "type": "name", "properties": { "name": "urn:ogc:def:crs:OGC:1.3:CRS84" } },
"features": [
{ "type": "Feature", "properties": { "municipio": "Avia Terai", "localidad": "Avia Terai", "nombre_o_i": "EGB Nª182 - Escuela y Pozo", "lat": "26° 37' 3,756\" S", "long": "60° 40' 31,836\" W" }, "geometry": { "type": "Point", "coordinates": [ -60.67551, -26.61771 ] } },
{ "type": "Feature", "properties": { "municipio": "Avia Terai", "localidad": "Avia Terai", "nombre_o_i": "Esc. Nª739", "lat": "26° 31' 45,768\" S", "long": "60° 38' 25,404\" W" }, "geometry": { "type": "Point", "coordinates": [ -60.64039, -26.52938 ] } },
{ "type": "Feature", "properties": { "municipio": "Avia Terai", "localidad": "Avia Terai", "nombre_o_i": "Pueso Sanitario", "lat": "26° 31' 25,392\" S", "long": "60° 34' 28,668\" W" }, "geometry": { "type": "Point", "coordinates": [ -60.57463, -26.52372 ] } },
{ "type": "Feature", "properties": { "municipio": "Avia Terai", "localidad": "Avia Terai", "nombre_o_i": "EGB Nª259", "lat": "26° 29' 20,544\" S", "long": "60° 42' 0,720\" W" }, "geometry": { "type": "Point", "coordinates": [ -60.7002, -26.48904 ] } },
{ "type": "Feature", "properties": { "municipio": "Avia Terai", "localidad": "Avia Terai", "nombre_o_i": "EGB Nª846", "lat": "26° 28' 7,428\" S", "long": "60° 43' 55,704\" W" }, "geometry": { "type": "Point", "coordinates": [ -60.73214, -26.46873 ] } },
{ "type": "Feature", "properties": { "municipio": "Avia Terai", "localidad": "Avia Terai", "nombre_o_i": "EGB Nª628", "lat": "26° 33' 24,984\" S", "long": "60° 42' 56,664\" W" }, "geometry": { "type": "Point", "coordinates": [ -60.71574, -26.55694 ] } },
{ "type": "Feature", "properties": { "municipio": "Avia Terai", "localidad": "Avia Terai", "nombre_o_i": "EGB Nª946", "lat": "26° 34' 55,884\" S", "long": "60° 45' 47,268\" W" }, "geometry": { "type": "Point", "coordinates": [ -60.76313, -26.58219 ] } },
{ "type": "Feature", "properties": { "municipio": "Basail", "localidad": "Basail", "nombre_o_i": "EEP 224\/ Jardín A 119\/ Biblioteca Escolar", "lat": "27° 57' 4,824\" S", "long": "59° 14' 18,204\" W" }, "geometry": { "type": "Point", "coordinates": [ -59.23839, -27.95134 ] } },
{ "type": "Feature", "properties": { "municipio": "Basail", "localidad": "Basail", "nombre_o_i": "EEP A 224", "lat": "27° 52' 51,744\" S", "long": "59° 7' 31,152\" W" }, "geometry": { "type": "Point", "coordinates": [ -59.12532, -27.88104 ] } },
{ "type": "Feature", "properties": { "municipio": "Basail", "localidad": "Basail", "nombre_o_i": "EEP 496 Juan de Garay\/ Jardín A 119", "lat": "28° 0' 8,208\" S", "long": "59° 13' 50,088\" W" }, "geometry": { "type": "Point", "coordinates": [ -59.23058, -28.00228 ] } },
{ "type": "Feature", "properties": { "municipio": "Basail", "localidad": "Basail", "nombre_o_i": "EEP 551", "lat": "27° 57' 12,240\" S", "long": "59° 17' 55,824\" W" }, "geometry": { "type": "Point", "coordinates": [ -59.29884, -27.9534 ] } },
{ "type": "Feature", "properties": { "municipio": "Basail", "localidad": "Basail", "nombre_o_i": "Puesto Sanitario", "lat": "27° 57' 53,496\" S", "long": "59° 17' 55,716\" W" }, "geometry": { "type": "Point", "coordinates": [ -59.29881, -27.96486 ] } },
{ "type": "Feature", "properties": { "municipio": "Basail", "localidad": "Basail", "nombre_o_i": "EEP 772\/ Dr. Antonio Schulz\/ Jardín A 119", "lat": "27° 59' 18,420\" S", "long": "59° 20' 24,072\" W" }, "geometry": { "type": "Point", "coordinates": [ -59.34002, -27.98845 ] } },
{ "type": "Feature", "properties": { "municipio": "Basail", "localidad": "Basail", "nombre_o_i": "EEP 314", "lat": "27° 57' 51,012\" S", "long": "59° 22' 2,100\" W" }, "geometry": { "type": "Point", "coordinates": [ -59.36725, -27.96417 ] } },
{ "type": "Feature", "properties": { "municipio": "Basail", "localidad": "Basail", "nombre_o_i": "EEP 659 Amadeo Jacques\/ Jardín A 119", "lat": "27° 49' 14,340\" S", "long": "59° 17' 25,944\" W" }, "geometry": { "type": "Point", "coordinates": [ -59.29054, -27.82065 ] } },
{ "type": "Feature", "properties": { "municipio": "Basail", "localidad": "Basail", "nombre_o_i": "EFA 151 Loma Alta Basail", "lat": "27° 46' 2,028\" S", "long": "59° 15' 23,724\" W" }, "geometry": { "type": "Point", "coordinates": [ -59.25659, -27.76723 ] } },
{ "type": "Feature", "properties": { "municipio": "Basail", "localidad": "Basail", "nombre_o_i": "EEP A 797\/ EPA", "lat": "27° 56' 27,384\" S", "long": "58° 52' 4,008\" W" }, "geometry": { "type": "Point", "coordinates": [ -58.86778, -27.94094 ] } },
{ "type": "Feature", "properties": { "municipio": "Campo Largo", "localidad": "Cnia. José Marmol", "nombre_o_i": "Nivel B", "lat": "26° 58' 1,668\" S", "long": "60° 46' 37,848\" W" }, "geometry": { "type": "Point", "coordinates": [ -60.77718, -26.96713 ] } },
{ "type": "Feature", "properties": { "municipio": "Campo Largo", "localidad": "Cnia. José Marmol", "nombre_o_i": "E.E.P nº 93 Amado Kapetinich", "lat": "26° 57' 28,440\" S", "long": "60° 42' 56,844\" W" }, "geometry": { "type": "Point", "coordinates": [ -60.71579, -26.9579 ] } },
{ "type": "Feature", "properties": { "municipio": "Campo Largo", "localidad": "Cnia. José Marmol", "nombre_o_i": "Jardin de Infantes Anexo E.E.P nº 180", "lat": "26° 59' 44,952\" S", "long": "60° 40' 31,800\" W" }, "geometry": { "type": "Point", "coordinates": [ -60.6755, -26.99582 ] } },
{ "type": "Feature", "properties": { "municipio": "Campo Largo", "localidad": "Pampa Oculta", "nombre_o_i": "Nivel B", "lat": "26° 48' 31,788\" S", "long": "60° 44' 31,200\" W" }, "geometry": { "type": "Point", "coordinates": [ -60.742, -26.80883 ] } },
{ "type": "Feature", "properties": { "municipio": "Campo Largo", "localidad": "Pampa Oculta", "nombre_o_i": "E.E.P nº 357", "lat": "26° 48' 6,480\" S", "long": "60° 41' 44,268\" W" }, "geometry": { "type": "Point", "coordinates": [ -60.69563, -26.8018 ] } },
{ "type": "Feature", "properties": { "municipio": "Campo Largo", "localidad": "Pampa Oculta", "nombre_o_i": "Nivel B", "lat": "26° 51' 25,164\" S", "long": "60° 40' 36,264\" W" }, "geometry": { "type": "Point", "coordinates": [ -60.67674, -26.85699 ] } },
{ "type": "Feature", "properties": { "municipio": "Campo Largo", "localidad": "Fortin La Chuñas", "nombre_o_i": "Jardin de Infantes Anexo E.E.P nº 307", "lat": "26° 53' 10,500\" S", "long": "60° 54' 25,128\" W" }, "geometry": { "type": "Point", "coordinates": [ -60.90698, -26.88625 ] } },
{ "type": "Feature", "properties": { "municipio": "Campo Largo", "localidad": "Lote 50", "nombre_o_i": "Nivel B", "lat": "26° 48' 10,080\" S", "long": "60° 54' 7,056\" W" }, "geometry": { "type": "Point", "coordinates": [ -60.90196, -26.8028 ] } },
{ "type": "Feature", "properties": { "municipio": "Campo Largo", "localidad": "Lote 31", "nombre_o_i": "E.E.P nº 410", "lat": "26° 45' 25,452\" S", "long": "60° 55' 30,000\" W" }, "geometry": { "type": "Point", "coordinates": [ -60.925, -26.75707 ] } },
{ "type": "Feature", "properties": { "municipio": "Campo Largo", "localidad": "Pampa Oculta", "nombre_o_i": "E.EP nº 265", "lat": "26° 44' 7,980\" S", "long": "60° 52' 57,360\" W" }, "geometry": { "type": "Point", "coordinates": [ -60.8826, -26.73555 ] } },
{ "type": "Feature", "properties": { "municipio": "Campo Largo", "localidad": "Campo Largo", "nombre_o_i": "EEP 214", "lat": "27° 2' 25,620\" S", "long": "60° 39' 17,568\" W" }, "geometry": { "type": "Point", "coordinates": [ -60.65488, -27.04045 ] } },
{ "type": "Feature", "properties": { "municipio": "Capitán Solari", "localidad": "Capitán Solari", "nombre_o_i": null, "lat": "26° 50' 19,716\" S", "long": "59° 24' 13,320\" W" }, "geometry": { "type": "Point", "coordinates": [ -59.4037, -26.83881 ] } },
{ "type": "Feature", "properties": { "municipio": "Capitán Solari", "localidad": "Capitán Solari", "nombre_o_i": "EEP", "lat": "26° 50' 1,068\" S", "long": "59° 36' 18,072\" W" }, "geometry": { "type": "Point", "coordinates": [ -59.60502, -26.83363 ] } },
{ "type": "Feature", "properties": { "municipio": "Charadai", "localidad": "Charadai", "nombre_o_i": "Hospital Rural Charadai", "lat": "27° 39' 13,824\" S", "long": "59° 51' 36,432\" W" }, "geometry": { "type": "Point", "coordinates": [ -59.86012, -27.65384 ] } },
{ "type": "Feature", "properties": { "municipio": "Charadai", "localidad": "La Sabana", "nombre_o_i": "EEP 22\/ Jardín A 22\/ EPA A 22", "lat": "27° 52' 21,396\" S", "long": "59° 56' 16,656\" W" }, "geometry": { "type": "Point", "coordinates": [ -59.93796, -27.87261 ] } },
{ "type": "Feature", "properties": { "municipio": "Charadai", "localidad": "Charadai", "nombre_o_i": "EEP A 24", "lat": "27° 50' 0,096\" S", "long": "59° 48' 19,008\" W" }, "geometry": { "type": "Point", "coordinates": [ -59.80528, -27.83336 ] } },
{ "type": "Feature", "properties": { "municipio": "Charadai", "localidad": "Haumonia", "nombre_o_i": "EEP 15 \/ Jardín A 15", "lat": "27° 30' 23,184\" S", "long": "60° 10' 40,764\" W" }, "geometry": { "type": "Point", "coordinates": [ -60.17799, -27.50644 ] } },
{ "type": "Feature", "properties": { "municipio": "Charadai", "localidad": "Charadai", "nombre_o_i": "EEP 382 - Lote 1", "lat": "27° 20' 54,708\" S", "long": "60° 10' 15,384\" W" }, "geometry": { "type": "Point", "coordinates": [ -60.17094, -27.34853 ] } },
{ "type": "Feature", "properties": { "municipio": "Charadai", "localidad": "Horquilla", "nombre_o_i": "EEP 53\/ Jardín A 53", "lat": "27° 32' 36,528\" S", "long": "59° 57' 21,960\" W" }, "geometry": { "type": "Point", "coordinates": [ -59.9561, -27.54348 ] } },
{ "type": "Feature", "properties": { "municipio": "Charata", "localidad": "Pampa Barrera", "nombre_o_i": "E.E.P nº 128", "lat": "27° 13' 12,360\" S", "long": "61° 15' 49,464\" W" }, "geometry": { "type": "Point", "coordinates": [ -61.26374, -27.2201 ] } },
{ "type": "Feature", "properties": { "municipio": "Charata", "localidad": "Pampa Cabrera", "nombre_o_i": "Jardin de Infantes Anexo E.E.P nº 109", "lat": "27° 5' 46,752\" S", "long": "61° 22' 11,388\" W" }, "geometry": { "type": "Point", "coordinates": [ -61.36983, -27.09632 ] } },
{ "type": "Feature", "properties": { "municipio": "Charata", "localidad": "Pampa Moreno", "nombre_o_i": "E.E.P nº 1025", "lat": "27° 5' 4,020\" S", "long": "61° 25' 24,240\" W" }, "geometry": { "type": "Point", "coordinates": [ -61.4234, -27.08445 ] } },
{ "type": "Feature", "properties": { "municipio": "Charata", "localidad": "Pampa Avila", "nombre_o_i": "E.E.P nº 310 Alejandro Avila", "lat": "26° 59' 21,372\" S", "long": "61° 31' 30,684\" W" }, "geometry": { "type": "Point", "coordinates": [ -61.52519, -26.98927 ] } },
{ "type": "Feature", "properties": { "municipio": "Charata", "localidad": "Tres Estaca", "nombre_o_i": "Jardin de Infantes Anexo E.E.P nº 399", "lat": "26° 55' 18,480\" S", "long": "61° 37' 34,212\" W" }, "geometry": { "type": "Point", "coordinates": [ -61.62617, -26.9218 ] } },
{ "type": "Feature", "properties": { "municipio": "Charata", "localidad": "El Picazo", "nombre_o_i": "E.E.P nº 188", "lat": "26° 50' 31,056\" S", "long": "61° 37' 16,176\" W" }, "geometry": { "type": "Point", "coordinates": [ -61.62116, -26.84196 ] } },
{ "type": "Feature", "properties": { "municipio": "Charata", "localidad": "San Jose de los Huaricos", "nombre_o_i": "E.E.P nº 171", "lat": "26° 54' 2,196\" S", "long": "61° 31' 23,988\" W" }, "geometry": { "type": "Point", "coordinates": [ -61.52333, -26.90061 ] } },
{ "type": "Feature", "properties": { "municipio": "Charata", "localidad": "Colonia Aborigen", "nombre_o_i": "E.E.P nº 1033 J Larrea", "lat": "26° 58' 0,120\" S", "long": "61° 27' 5,904\" W" }, "geometry": { "type": "Point", "coordinates": [ -61.45164, -26.9667 ] } },
{ "type": "Feature", "properties": { "municipio": "Charata", "localidad": "Charata", "nombre_o_i": "Jardin de Infantes Anexo E.E.P nº229", "lat": "27° 0' 49,644\" S", "long": "61° 26' 27,024\" W" }, "geometry": { "type": "Point", "coordinates": [ -61.44084, -27.01379 ] } },
{ "type": "Feature", "properties": { "municipio": "Charata", "localidad": "Pampa Moreno", "nombre_o_i": "E.E.P 871", "lat": "27° 2' 10,788\" S", "long": "61° 21' 24,840\" W" }, "geometry": { "type": "Point", "coordinates": [ -61.3569, -27.03633 ] } },
{ "type": "Feature", "properties": { "municipio": "Charata", "localidad": "Charata", "nombre_o_i": "E.E.P nº 102", "lat": "27° 4' 58,476\" S", "long": "61° 15' 22,788\" W" }, "geometry": { "type": "Point", "coordinates": [ -61.25633, -27.08291 ] } },
{ "type": "Feature", "properties": { "municipio": "Charata", "localidad": "Charata", "nombre_o_i": "E.E.P nº 165", "lat": "27° 7' 46,056\" S", "long": "61° 13' 20,100\" W" }, "geometry": { "type": "Point", "coordinates": [ -61.22225, -27.12946 ] } },
{ "type": "Feature", "properties": { "municipio": "Charata", "localidad": "Pampa Roldan", "nombre_o_i": "E.E.P nº 160", "lat": "27° 8' 26,268\" S", "long": "61° 16' 21,720\" W" }, "geometry": { "type": "Point", "coordinates": [ -61.2727, -27.14063 ] } },
{ "type": "Feature", "properties": { "municipio": "Charata", "localidad": "Pampa del Cielo", "nombre_o_i": "E.E.P nº 120", "lat": "27° 9' 24,084\" S", "long": "61° 8' 23,676\" W" }, "geometry": { "type": "Point", "coordinates": [ -61.13991, -27.15669 ] } },
{ "type": "Feature", "properties": { "municipio": "Charata", "localidad": null, "nombre_o_i": "E.E.P nº 220", "lat": "27° 12' 47,340\" S", "long": "61° 6' 0,216\" W" }, "geometry": { "type": "Point", "coordinates": [ -61.10006, -27.21315 ] } },
{ "type": "Feature", "properties": { "municipio": "Charata", "localidad": "San Isidro Labrador", "nombre_o_i": "E.E.P nº 379", "lat": "27° 15' 44,352\" S", "long": "61° 1' 41,052\" W" }, "geometry": { "type": "Point", "coordinates": [ -61.02807, -27.26232 ] } },
{ "type": "Feature", "properties": { "municipio": "Charata", "localidad": "Charata", "nombre_o_i": "Jardin de Infantes Anexo E.E.P nº 193", "lat": "27° 19' 8,436\" S", "long": "60° 58' 40,188\" W" }, "geometry": { "type": "Point", "coordinates": [ -60.97783, -27.31901 ] } },
{ "type": "Feature", "properties": { "municipio": "Charata", "localidad": "Charata", "nombre_o_i": "E.E.P nº 170", "lat": "27° 22' 17,076\" S", "long": "60° 58' 4,728\" W" }, "geometry": { "type": "Point", "coordinates": [ -60.96798, -27.37141 ] } },
{ "type": "Feature", "properties": { "municipio": "Charata", "localidad": "Charata", "nombre_o_i": "E.E.P nº 385", "lat": "27° 22' 56,460\" S", "long": "61° 0' 53,604\" W" }, "geometry": { "type": "Point", "coordinates": [ -61.01489, -27.38235 ] } },
{ "type": "Feature", "properties": { "municipio": "Charata", "localidad": "Charata", "nombre_o_i": "E.E.P nº 385 Anexo", "lat": "27° 19' 52,680\" S", "long": "61° 3' 37,836\" W" }, "geometry": { "type": "Point", "coordinates": [ -61.06051, -27.3313 ] } },
{ "type": "Feature", "properties": { "municipio": "Charata", "localidad": "Charata", "nombre_o_i": "E.E.P nº 253", "lat": "27° 17' 5,532\" S", "long": "61° 9' 42,228\" W" }, "geometry": { "type": "Point", "coordinates": [ -61.16173, -27.28487 ] } },
{ "type": "Feature", "properties": { "municipio": "Charata", "localidad": "Charata", "nombre_o_i": "E.E.P nº 189", "lat": "27° 15' 29,124\" S", "long": "61° 12' 4,968\" W" }, "geometry": { "type": "Point", "coordinates": [ -61.20138, -27.25809 ] } },
{ "type": "Feature", "properties": { "municipio": "Charata", "localidad": "Charata", "nombre_o_i": "E.E.P nº 434 Anexo 379", "lat": "27° 17' 0,312\" S", "long": "61° 5' 50,280\" W" }, "geometry": { "type": "Point", "coordinates": [ -61.0973, -27.28342 ] } },
{ "type": "Feature", "properties": { "municipio": "Chorotis", "localidad": "Chorotis", "nombre_o_i": "EGB 83 Francisco de Gurruchaga \/ Jardín A 83 - Tres Mojones Oeste", "lat": "27° 51' 49,968\" S", "long": "61° 41' 18,600\" W" }, "geometry": { "type": "Point", "coordinates": [ -61.6885, -27.86388 ] } },
{ "type": "Feature", "properties": { "municipio": "Chorotis", "localidad": "Chorotis", "nombre_o_i": "Esc.426 Manuel Laola - Tres Mojones Oeste", "lat": "27° 58' 12,972\" S", "long": "61° 41' 40,056\" W" }, "geometry": { "type": "Point", "coordinates": [ -61.69446, -27.97027 ] } },
{ "type": "Feature", "properties": { "municipio": "Chorotis", "localidad": "Chorotis", "nombre_o_i": "Puesto Sanitario B", "lat": "27° 58' 1,596\" S", "long": "61° 37' 11,712\" W" }, "geometry": { "type": "Point", "coordinates": [ -61.61992, -27.96711 ] } },
{ "type": "Feature", "properties": { "municipio": "Chorotis", "localidad": "Chorotis", "nombre_o_i": "EGB 767 \/Jardín A 767 \/Biblioteca Escolar", "lat": "27° 57' 58,680\" S", "long": "61° 37' 11,424\" W" }, "geometry": { "type": "Point", "coordinates": [ -61.61984, -27.9663 ] } },
{ "type": "Feature", "properties": { "municipio": "Chorotis", "localidad": "Chorotis", "nombre_o_i": "Puesto Policial de Chorotis", "lat": "27° 58' 2,172\" S", "long": "61° 37' 6,384\" W" }, "geometry": { "type": "Point", "coordinates": [ -61.61844, -27.96727 ] } },
{ "type": "Feature", "properties": { "municipio": "Chorotis", "localidad": "Chorotis", "nombre_o_i": "A EGB 481 - Tres Mojones Este", "lat": "27° 58' 28,200\" S", "long": "61° 30' 59,004\" W" }, "geometry": { "type": "Point", "coordinates": [ -61.51639, -27.9745 ] } },
{ "type": "Feature", "properties": { "municipio": "Ciervo Petiso", "localidad": "Ciervo Petiso", "nombre_o_i": "EEP 672", "lat": "26° 32' 16,692\" S", "long": "59° 41' 16,980\" W" }, "geometry": { "type": "Point", "coordinates": [ -59.68805, -26.53797 ] } },
{ "type": "Feature", "properties": { "municipio": "Ciervo Petiso", "localidad": "Ciervo Petiso", "nombre_o_i": "EEP 672", "lat": "26° 31' 59,556\" S", "long": "59° 41' 58,272\" W" }, "geometry": { "type": "Point", "coordinates": [ -59.69952, -26.53321 ] } },
{ "type": "Feature", "properties": { "municipio": "Colonia Benítez", "localidad": "Colonia Benítez", "nombre_o_i": "EEGB N°101", "lat": "27° 13' 43,644\" S", "long": "58° 54' 15,192\" W" }, "geometry": { "type": "Point", "coordinates": [ -58.90422, -27.22879 ] } },
{ "type": "Feature", "properties": { "municipio": "Colonia Benítez", "localidad": "Colonia Benítez", "nombre_o_i": "EEGB", "lat": "27° 19' 4,872\" S", "long": "58° 45' 57,744\" W" }, "geometry": { "type": "Point", "coordinates": [ -58.76604, -27.31802 ] } },
{ "type": "Feature", "properties": { "municipio": "Colonia Benítez", "localidad": "Colonia Benítez", "nombre_o_i": "Psto.Sanitario B - Pto.Antequeras", "lat": "27° 25' 45,840\" S", "long": "58° 50' 46,860\" W" }, "geometry": { "type": "Point", "coordinates": [ -58.84635, -27.4294 ] } },
{ "type": "Feature", "properties": { "municipio": "Colonia Benítez", "localidad": "Colonia Benítez", "nombre_o_i": "EEGB Anexo 159", "lat": "27° 26' 27,096\" S", "long": "58° 51' 5,976\" W" }, "geometry": { "type": "Point", "coordinates": [ -58.85166, -27.44086 ] } },
{ "type": "Feature", "properties": { "municipio": "Colonia Benítez", "localidad": "Colonia Benítez", "nombre_o_i": "CEP N°107", "lat": "27° 27' 32,472\" S", "long": "58° 51' 57,672\" W" }, "geometry": { "type": "Point", "coordinates": [ -58.86602, -27.45902 ] } },
{ "type": "Feature", "properties": { "municipio": "Colonia Elisa", "localidad": "Ing. Barbet", "nombre_o_i": "EEP 262 \/Jardín A 262 \/ A EPA 262", "lat": "27° 0' 7,956\" S", "long": "59° 28' 53,976\" W" }, "geometry": { "type": "Point", "coordinates": [ -59.48166, -27.00221 ] } },
{ "type": "Feature", "properties": { "municipio": "Colonia Elisa", "localidad": "Colonia Elisa", "nombre_o_i": "Puesto Sanitario", "lat": "26° 59' 25,368\" S", "long": "59° 33' 16,848\" W" }, "geometry": { "type": "Point", "coordinates": [ -59.55468, -26.99038 ] } },
{ "type": "Feature", "properties": { "municipio": "Colonia Elisa", "localidad": "Colonia Elisa", "nombre_o_i": "Puesto Sanitario", "lat": "26° 55' 42,924\" S", "long": "59° 35' 38,040\" W" }, "geometry": { "type": "Point", "coordinates": [ -59.5939, -26.92859 ] } },
{ "type": "Feature", "properties": { "municipio": "Colonia Elisa", "localidad": "Colonia Elisa", "nombre_o_i": "A EPA 391", "lat": "26° 54' 14,148\" S", "long": "59° 34' 28,596\" W" }, "geometry": { "type": "Point", "coordinates": [ -59.57461, -26.90393 ] } },
{ "type": "Feature", "properties": { "municipio": "Colonia Elisa", "localidad": "Colonia Elisa", "nombre_o_i": "EEP 978", "lat": "26° 54' 44,532\" S", "long": "59° 32' 40,668\" W" }, "geometry": { "type": "Point", "coordinates": [ -59.54463, -26.91237 ] } },
{ "type": "Feature", "properties": { "municipio": "Colonia Elisa", "localidad": "Colonia Elisa", "nombre_o_i": "A EEP 792 Olga Nelly B.de Tayara \/BLA", "lat": "26° 54' 9,864\" S", "long": "59° 31' 27,768\" W" }, "geometry": { "type": "Point", "coordinates": [ -59.52438, -26.90274 ] } },
{ "type": "Feature", "properties": { "municipio": "Colonia Elisa", "localidad": "Colonia Elisa", "nombre_o_i": "Puesto Sanitario", "lat": "26° 52' 2,676\" S", "long": "59° 31' 52,824\" W" }, "geometry": { "type": "Point", "coordinates": [ -59.53134, -26.86741 ] } },
{ "type": "Feature", "properties": { "municipio": "Colonia Elisa", "localidad": "Colonia Elisa", "nombre_o_i": "EEP", "lat": "26° 54' 2,772\" S", "long": "59° 27' 11,808\" W" }, "geometry": { "type": "Point", "coordinates": [ -59.45328, -26.90077 ] } },
{ "type": "Feature", "properties": { "municipio": "Colonia Elisa", "localidad": "Colonia Elisa", "nombre_o_i": "Puesto Sanitario", "lat": "26° 52' 29,568\" S", "long": "59° 28' 46,884\" W" }, "geometry": { "type": "Point", "coordinates": [ -59.47969, -26.87488 ] } },
{ "type": "Feature", "properties": { "municipio": "Colonia Elisa", "localidad": "Colonia Elisa", "nombre_o_i": "EEP", "lat": "26° 54' 50,364\" S", "long": "59° 25' 24,132\" W" }, "geometry": { "type": "Point", "coordinates": [ -59.42337, -26.91399 ] } },
{ "type": "Feature", "properties": { "municipio": "Colonia Elisa", "localidad": "Colonia Elisa", "nombre_o_i": "EEP", "lat": "26° 51' 48,276\" S", "long": "59° 17' 47,976\" W" }, "geometry": { "type": "Point", "coordinates": [ -59.29666, -26.86341 ] } },
{ "type": "Feature", "properties": { "municipio": "Colonia Elisa", "localidad": "Colonia Elisa", "nombre_o_i": "EGB", "lat": "26° 54' 59,580\" S", "long": "59° 11' 30,948\" W" }, "geometry": { "type": "Point", "coordinates": [ -59.19193, -26.91655 ] } },
{ "type": "Feature", "properties": { "municipio": "Colonias Unidas", "localidad": "Colonias Unidas", "nombre_o_i": "EEP 365", "lat": "26° 45' 12,456\" S", "long": "59° 36' 24,696\" W" }, "geometry": { "type": "Point", "coordinates": [ -59.60686, -26.75346 ] } },
{ "type": "Feature", "properties": { "municipio": "Colonias Unidas", "localidad": "Colonias Unidas", "nombre_o_i": "EFA Arraigo Campesino\/ UEP 148", "lat": "26° 43' 28,344\" S", "long": "59° 39' 17,964\" W" }, "geometry": { "type": "Point", "coordinates": [ -59.65499, -26.72454 ] } },
{ "type": "Feature", "properties": { "municipio": "Concepción del Bermejo", "localidad": "Concepción del Bermejo", "nombre_o_i": "EGB s\/n", "lat": "26° 39' 44,604\" S", "long": "61° 3' 20,628\" W" }, "geometry": { "type": "Point", "coordinates": [ -61.05573, -26.66239 ] } },
{ "type": "Feature", "properties": { "municipio": "Concepción del Bermejo", "localidad": "Concepción del Bermejo", "nombre_o_i": "EGB Nª722", "lat": "26° 39' 48,096\" S", "long": "60° 55' 48,720\" W" }, "geometry": { "type": "Point", "coordinates": [ -60.9302, -26.66336 ] } },
{ "type": "Feature", "properties": { "municipio": "Concepción del Bermejo", "localidad": "Concepción del Bermejo", "nombre_o_i": "EGB Nª843", "lat": "26° 31' 58,908\" S", "long": "61° 1' 46,920\" W" }, "geometry": { "type": "Point", "coordinates": [ -61.0297, -26.53303 ] } },
{ "type": "Feature", "properties": { "municipio": "Concepción del Bermejo", "localidad": "Concepción del Bermejo", "nombre_o_i": "EGB Nª985", "lat": "26° 29' 25,908\" S", "long": "60° 55' 32,592\" W" }, "geometry": { "type": "Point", "coordinates": [ -60.92572, -26.49053 ] } },
{ "type": "Feature", "properties": { "municipio": "Concepción del Bermejo", "localidad": "Concepción del Bermejo", "nombre_o_i": "EGB Nª627", "lat": "26° 27' 54,648\" S", "long": "60° 58' 5,520\" W" }, "geometry": { "type": "Point", "coordinates": [ -60.9682, -26.46518 ] } },
{ "type": "Feature", "properties": { "municipio": "Concepción del Bermejo", "localidad": "Concepción del Bermejo", "nombre_o_i": "Puesto Sanitario", "lat": "26° 25' 26,436\" S", "long": "60° 54' 12,384\" W" }, "geometry": { "type": "Point", "coordinates": [ -60.90344, -26.42401 ] } },
{ "type": "Feature", "properties": { "municipio": "Cnel Du Graty", "localidad": "Cnel Du Graty", "nombre_o_i": "EEGB 312 Maestro Luis Enrique Norverto - Campo Ugarte", "lat": "27° 41' 22,020\" S", "long": "60° 50' 6,900\" W" }, "geometry": { "type": "Point", "coordinates": [ -60.83525, -27.68945 ] } },
{ "type": "Feature", "properties": { "municipio": "Cnel Du Graty", "localidad": "Cnel Du Graty", "nombre_o_i": "EEP 719 J.M.Estrada - Los Fortines", "lat": "27° 46' 8,868\" S", "long": "60° 46' 7,392\" W" }, "geometry": { "type": "Point", "coordinates": [ -60.76872, -27.76913 ] } },
{ "type": "Feature", "properties": { "municipio": "Cnel Du Graty", "localidad": "Cnel Du Graty", "nombre_o_i": "EGB 856 Río Bermejo - El Palmar", "lat": "27° 55' 26,220\" S", "long": "60° 50' 49,236\" W" }, "geometry": { "type": "Point", "coordinates": [ -60.84701, -27.92395 ] } },
{ "type": "Feature", "properties": { "municipio": "Cnel Du Graty", "localidad": "Cnel Du Graty", "nombre_o_i": "EEP 640 Alfredo Du Graty", "lat": "27° 47' 10,248\" S", "long": "60° 53' 27,240\" W" }, "geometry": { "type": "Point", "coordinates": [ -60.8909, -27.78618 ] } },
{ "type": "Feature", "properties": { "municipio": "Cnel Du Graty", "localidad": "Cnel Du Graty", "nombre_o_i": "EGB 527 Luis Pasteur", "lat": "27° 43' 31,764\" S", "long": "60° 58' 27,912\" W" }, "geometry": { "type": "Point", "coordinates": [ -60.97442, -27.72549 ] } },
{ "type": "Feature", "properties": { "municipio": "Cnel Du Graty", "localidad": "Cnel Du Graty", "nombre_o_i": "EEGB 527 Luis Pasteur - Col. El Ñandubay", "lat": "27° 45' 48,060\" S", "long": "61° 1' 58,188\" W" }, "geometry": { "type": "Point", "coordinates": [ -61.03283, -27.76335 ] } },
{ "type": "Feature", "properties": { "municipio": "Cnel Du Graty", "localidad": "Cnel Du Graty", "nombre_o_i": "EEGB 836 - Lote 13 Col. El Ñandubay \/ Jardín A 836", "lat": "27° 39' 28,512\" S", "long": "60° 57' 39,492\" W" }, "geometry": { "type": "Point", "coordinates": [ -60.96097, -27.65792 ] } },
{ "type": "Feature", "properties": { "municipio": "Cnel Du Graty", "localidad": "Cnel Du Graty", "nombre_o_i": "EEGB 285 José María Torres \/ Jardín A 285", "lat": "27° 36' 57,060\" S", "long": "61° 0' 3,888\" W" }, "geometry": { "type": "Point", "coordinates": [ -61.00108, -27.61585 ] } },
{ "type": "Feature", "properties": { "municipio": "Cnel Du Graty", "localidad": "Cnel Du Graty", "nombre_o_i": "EEGB 467 - Las Golondrinas Norte \/ Jardín \/ Tec. Agrop.", "lat": "27° 33' 30,636\" S", "long": "60° 57' 31,788\" W" }, "geometry": { "type": "Point", "coordinates": [ -60.95883, -27.55851 ] } },
{ "type": "Feature", "properties": { "municipio": "Cnel Du Graty", "localidad": "Cnel Du Graty", "nombre_o_i": "EEGB 603 (ex73) Juan Carlos Dávalos - Col. Las Golondrinas Sur", "lat": "27° 36' 56,700\" S", "long": "60° 55' 46,596\" W" }, "geometry": { "type": "Point", "coordinates": [ -60.92961, -27.61575 ] } },
{ "type": "Feature", "properties": { "municipio": "Cnel Du Graty", "localidad": "Cnel Du Graty", "nombre_o_i": "EGB 582 \/ Jard{in A 582 Manuel Alberti Col. La Colorada", "lat": "27° 37' 33,312\" S", "long": "60° 53' 6,396\" W" }, "geometry": { "type": "Point", "coordinates": [ -60.88511, -27.62592 ] } },
{ "type": "Feature", "properties": { "municipio": "Corzuela", "localidad": "Campo Caí Caton", "nombre_o_i": "E.E.P nº 119", "lat": "26° 57' 53,820\" S", "long": "61° 1' 50,088\" W" }, "geometry": { "type": "Point", "coordinates": [ -61.03058, -26.96495 ] } },
{ "type": "Feature", "properties": { "municipio": "Corzuela", "localidad": "Pampa Zappa", "nombre_o_i": "E.E.P nº 119 Benigno Nuñez", "lat": "26° 57' 34,056\" S", "long": "61° 4' 22,224\" W" }, "geometry": { "type": "Point", "coordinates": [ -61.07284, -26.95946 ] } },
{ "type": "Feature", "properties": { "municipio": "Corzuela", "localidad": "Racing", "nombre_o_i": "E.E.P nº 151", "lat": "26° 53' 52,584\" S", "long": "61° 1' 43,176\" W" }, "geometry": { "type": "Point", "coordinates": [ -61.02866, -26.89794 ] } },
{ "type": "Feature", "properties": { "municipio": "Corzuela", "localidad": "Pampa La Porteña", "nombre_o_i": "E.E.P nº 152", "lat": "26° 53' 30,012\" S", "long": "61° 7' 9,588\" W" }, "geometry": { "type": "Point", "coordinates": [ -61.11933, -26.89167 ] } },
{ "type": "Feature", "properties": { "municipio": "Corzuela", "localidad": "Pampa La Porteña", "nombre_o_i": "E.E.P nº 152 Anexo", "lat": "26° 50' 33,432\" S", "long": "61° 10' 23,052\" W" }, "geometry": { "type": "Point", "coordinates": [ -61.17307, -26.84262 ] } },
{ "type": "Feature", "properties": { "municipio": "Corzuela", "localidad": "Loro Blanco", "nombre_o_i": "E.E.P nº 858", "lat": "26° 42' 25,848\" S", "long": "61° 11' 16,116\" W" }, "geometry": { "type": "Point", "coordinates": [ -61.18781, -26.70718 ] } },
{ "type": "Feature", "properties": { "municipio": "Corzuela", "localidad": "Pampa Sarmiento", "nombre_o_i": "E.E.P nº 649 Lazaro Herrera", "lat": "27° 0' 18,540\" S", "long": "60° 56' 18,384\" W" }, "geometry": { "type": "Point", "coordinates": [ -60.93844, -27.00515 ] } },
{ "type": "Feature", "properties": { "municipio": "Corzuela", "localidad": "Pampa Sarmiento", "nombre_o_i": "Nivel B", "lat": "26° 56' 30,336\" S", "long": "60° 52' 53,688\" W" }, "geometry": { "type": "Point", "coordinates": [ -60.88158, -26.94176 ] } },
{ "type": "Feature", "properties": { "municipio": "Corzuela", "localidad": "Pampa Alsina", "nombre_o_i": "Nivel B", "lat": "26° 59' 40,272\" S", "long": "60° 51' 28,368\" W" }, "geometry": { "type": "Point", "coordinates": [ -60.85788, -26.99452 ] } },
{ "type": "Feature", "properties": { "municipio": "Corzuela", "localidad": "Corzuela", "nombre_o_i": "E.E.P nº 244", "lat": "27° 6' 21,348\" S", "long": "60° 51' 26,676\" W" }, "geometry": { "type": "Point", "coordinates": [ -60.85741, -27.10593 ] } },
{ "type": "Feature", "properties": { "municipio": "Cote Lai", "localidad": "Cote Lai", "nombre_o_i": "Albergue Estudiantil EES 89", "lat": "27° 31' 42,420\" S", "long": "59° 34' 29,676\" W" }, "geometry": { "type": "Point", "coordinates": [ -59.57491, -27.52845 ] } },
{ "type": "Feature", "properties": { "municipio": "Cote Lai", "localidad": "Cote Lai", "nombre_o_i": "EEP 113\/ Biblioteca Escolar 109", "lat": "27° 31' 55,200\" S", "long": "59° 34' 32,988\" W" }, "geometry": { "type": "Point", "coordinates": [ -59.57583, -27.532 ] } },
{ "type": "Feature", "properties": { "municipio": "Cote Lai", "localidad": "Cote Lai", "nombre_o_i": "EGB 860", "lat": "27° 42' 16,810\" S", "long": "59° 30' 54,200\" W" }, "geometry": { "type": "Point", "coordinates": [ -59.515056, -27.704669 ] } },
{ "type": "Feature", "properties": { "municipio": "Cote Lai", "localidad": "Tapenagá", "nombre_o_i": "EGB 508 Estancia el 38", "lat": "27° 46' 50,880\" S", "long": "59° 36' 23,420\" W" }, "geometry": { "type": "Point", "coordinates": [ -59.606506, -27.7808 ] } },
{ "type": "Feature", "properties": { "municipio": "Cote Lai", "localidad": "Tapenagá", "nombre_o_i": "EGB 508", "lat": "27° 33' 54,470\" S", "long": "59° 39' 32,160\" W" }, "geometry": { "type": "Point", "coordinates": [ -59.658933, -27.565131 ] } },
{ "type": "Feature", "properties": { "municipio": "Cote Lai", "localidad": "Cote Lai", "nombre_o_i": "EGB 636 Juan Bautista Ambrosetti", "lat": "27° 19' 47,680\" S", "long": "59° 39' 4,990\" W" }, "geometry": { "type": "Point", "coordinates": [ -59.651386, -27.329911 ] } },
{ "type": "Feature", "properties": { "municipio": "Enrique Urien", "localidad": "Enrique Urien", "nombre_o_i": "EEP 560 Enrique Urien", "lat": "27° 29' 7,872\" S", "long": "60° 33' 37,512\" W" }, "geometry": { "type": "Point", "coordinates": [ -60.56042, -27.48552 ] } },
{ "type": "Feature", "properties": { "municipio": "Enrique Urien", "localidad": "Enrique Urien", "nombre_o_i": "EEP 864 \/Jardín A 864", "lat": "27° 51' 53,316\" S", "long": "60° 22' 4,476\" W" }, "geometry": { "type": "Point", "coordinates": [ -60.36791, -27.86481 ] } },
{ "type": "Feature", "properties": { "municipio": "Fuerte Esperanza", "localidad": "Fuerte Esperanza", "nombre_o_i": "Nivel A (Comandancia Frias)", "lat": "24° 32' 31,560\" S", "long": "62° 13' 35,256\" W" }, "geometry": { "type": "Point", "coordinates": [ -62.22646, -24.5421 ] } },
{ "type": "Feature", "properties": { "municipio": "Fuerte Esperanza", "localidad": "Fuerte Esperanza", "nombre_o_i": "Puesto Sanitario Nivel A Comandancia Frias", "lat": "24° 33' 40,356\" S", "long": "62° 14' 21,804\" W" }, "geometry": { "type": "Point", "coordinates": [ -62.23939, -24.56121 ] } },
{ "type": "Feature", "properties": { "municipio": "Fuerte Esperanza", "localidad": "Fuerte Esperanza", "nombre_o_i": "E.E.P Anexo n°780 (Pje San Juancito)", "lat": "24° 28' 12,648\" S", "long": "62° 16' 9,228\" W" }, "geometry": { "type": "Point", "coordinates": [ -62.26923, -24.47018 ] } },
{ "type": "Feature", "properties": { "municipio": "Fuerte Esperanza", "localidad": "Fuerte Esperanza", "nombre_o_i": "Nivel B Pje Madrejones", "lat": "24° 27' 23,868\" S", "long": "62° 19' 33,924\" W" }, "geometry": { "type": "Point", "coordinates": [ -62.32609, -24.45663 ] } },
{ "type": "Feature", "properties": { "municipio": "Fuerte Esperanza", "localidad": "Fuerte Esperanza", "nombre_o_i": "E.E.P.n°773 (Pje.Campo Grande)", "lat": "24° 43' 53,724\" S", "long": "61° 56' 9,384\" W" }, "geometry": { "type": "Point", "coordinates": [ -61.93594, -24.73159 ] } },
{ "type": "Feature", "properties": { "municipio": "Fuerte Esperanza", "localidad": "Fuerte Esperanza", "nombre_o_i": null, "lat": "24° 36' 32,688\" S", "long": "62° 8' 16,440\" W" }, "geometry": { "type": "Point", "coordinates": [ -62.1379, -24.60908 ] } },
{ "type": "Feature", "properties": { "municipio": "Fuerte Esperanza", "localidad": "Fuerte Esperanza", "nombre_o_i": "Nivel B (Pje.El Triunfo)", "lat": "24° 39' 19,476\" S", "long": "62° 25' 34,860\" W" }, "geometry": { "type": "Point", "coordinates": [ -62.42635, -24.65541 ] } },
{ "type": "Feature", "properties": { "municipio": "Fuerte Esperanza", "localidad": "Fuerte Esperanza", "nombre_o_i": "Nivel B (Pje. Santa Maria)", "lat": "25° 22' 25,140\" S", "long": "62° 1' 32,520\" W" }, "geometry": { "type": "Point", "coordinates": [ -62.0257, -25.37365 ] } },
{ "type": "Feature", "properties": { "municipio": "Gancedo", "localidad": "Gancedo", "nombre_o_i": "E.E.P nº 372", "lat": "27° 33' 26,640\" S", "long": "61° 41' 25,080\" W" }, "geometry": { "type": "Point", "coordinates": [ -61.6903, -27.5574 ] } },
{ "type": "Feature", "properties": { "municipio": "Gancedo", "localidad": "Gancedo", "nombre_o_i": "E.E.P nº 487", "lat": "27° 38' 40,632\" S", "long": "61° 40' 49,620\" W" }, "geometry": { "type": "Point", "coordinates": [ -61.68045, -27.64462 ] } },
{ "type": "Feature", "properties": { "municipio": "Gancedo", "localidad": "La Bolsa", "nombre_o_i": "E.E.P nº 501", "lat": "27° 22' 55,272\" S", "long": "61° 37' 33,384\" W" }, "geometry": { "type": "Point", "coordinates": [ -61.62594, -27.38202 ] } },
{ "type": "Feature", "properties": { "municipio": "Gancedo", "localidad": "El Palmar", "nombre_o_i": "E.E.P nº 705", "lat": "27° 9' 51,912\" S", "long": "61° 35' 55,500\" W" }, "geometry": { "type": "Point", "coordinates": [ -61.59875, -27.16442 ] } },
{ "type": "Feature", "properties": { "municipio": "Gral. Pinedo", "localidad": "El Palmar", "nombre_o_i": "E.E.P nº726", "lat": "27° 8' 16,044\" S", "long": "61° 33' 10,980\" W" }, "geometry": { "type": "Point", "coordinates": [ -61.55305, -27.13779 ] } },
{ "type": "Feature", "properties": { "municipio": "Gral. Pinedo", "localidad": "El Palmar Central", "nombre_o_i": "Puesto Sanitario Nivel B", "lat": "27° 4' 47,640\" S", "long": "61° 34' 47,712\" W" }, "geometry": { "type": "Point", "coordinates": [ -61.57992, -27.0799 ] } },
{ "type": "Feature", "properties": { "municipio": "Gral. Pinedo", "localidad": "Las Leonas", "nombre_o_i": "Jardin de Infantes Anexo E.E.P nº877", "lat": "27° 1' 50,124\" S", "long": "61° 39' 7,956\" W" }, "geometry": { "type": "Point", "coordinates": [ -61.65221, -27.03059 ] } },
{ "type": "Feature", "properties": { "municipio": "Gral. Pinedo", "localidad": "Las Leonas", "nombre_o_i": "E.E.P nº 877 Gral. Pinedo Anexo", "lat": "27° 2' 20,976\" S", "long": "61° 42' 43,308\" W" }, "geometry": { "type": "Point", "coordinates": [ -61.71203, -27.03916 ] } },
{ "type": "Feature", "properties": { "municipio": "Gral. Pinedo", "localidad": "Pampa Cejas", "nombre_o_i": "E.E.P nº 847 Juan Gregorio las Heras", "lat": "27° 4' 40,908\" S", "long": "61° 29' 45,024\" W" }, "geometry": { "type": "Point", "coordinates": [ -61.49584, -27.07803 ] } },
{ "type": "Feature", "properties": { "municipio": "Gral. Pinedo", "localidad": "Pampa Cejas", "nombre_o_i": "E.E.P nº 46 Anexo", "lat": "27° 7' 30,360\" S", "long": "61° 29' 49,308\" W" }, "geometry": { "type": "Point", "coordinates": [ -61.49703, -27.1251 ] } },
{ "type": "Feature", "properties": { "municipio": "Gral. Pinedo", "localidad": "Pampa Iturriel", "nombre_o_i": "Puesto Sanitario Nivel B", "lat": "27° 9' 57,528\" S", "long": "61° 28' 6,276\" W" }, "geometry": { "type": "Point", "coordinates": [ -61.46841, -27.16598 ] } },
{ "type": "Feature", "properties": { "municipio": "Gral. Pinedo", "localidad": "El Palmar Sur", "nombre_o_i": "Jardin de Infantes Anexo E.E.P nº 444", "lat": "27° 13' 8,076\" S", "long": "61° 27' 55,296\" W" }, "geometry": { "type": "Point", "coordinates": [ -61.46536, -27.21891 ] } },
{ "type": "Feature", "properties": { "municipio": "Gral. Pinedo", "localidad": "Gral. Pinedo", "nombre_o_i": "E.E.P nº 186 Bartolome Mitre", "lat": "27° 13' 46,020\" S", "long": "61° 24' 30,420\" W" }, "geometry": { "type": "Point", "coordinates": [ -61.40845, -27.22945 ] } },
{ "type": "Feature", "properties": { "municipio": "Gral. Pinedo", "localidad": "Pampa Schmidt", "nombre_o_i": "E.E.P nº 90 Francisco Munis", "lat": "27° 10' 21,792\" S", "long": "61° 21' 31,176\" W" }, "geometry": { "type": "Point", "coordinates": [ -61.35866, -27.17272 ] } },
{ "type": "Feature", "properties": { "municipio": "Gral. Pinedo", "localidad": "Colonia San Antonio", "nombre_o_i": "E.E.P nº 378 Luis Meloni", "lat": "27° 13' 38,820\" S", "long": "61° 22' 6,024\" W" }, "geometry": { "type": "Point", "coordinates": [ -61.36834, -27.22745 ] } },
{ "type": "Feature", "properties": { "municipio": "Gral. Pinedo", "localidad": "Pampa Gonzales", "nombre_o_i": "Jardin de Infantes Anexo E.E.P nº 231", "lat": "27° 15' 9,756\" S", "long": "61° 18' 56,124\" W" }, "geometry": { "type": "Point", "coordinates": [ -61.31559, -27.25271 ] } },
{ "type": "Feature", "properties": { "municipio": "Gral. Pinedo", "localidad": "Gral. Pinedo", "nombre_o_i": "Jardin de Infantes Anexo E.E.P nº 104", "lat": "27° 17' 50,136\" S", "long": "61° 18' 2,052\" W" }, "geometry": { "type": "Point", "coordinates": [ -61.30057, -27.29726 ] } },
{ "type": "Feature", "properties": { "municipio": "Gral. Pinedo", "localidad": "Gral. Pinedo", "nombre_o_i": "E.E.P nº 185 Leopoldo Lugones", "lat": "27° 16' 31,332\" S", "long": "61° 14' 35,016\" W" }, "geometry": { "type": "Point", "coordinates": [ -61.24306, -27.27537 ] } },
{ "type": "Feature", "properties": { "municipio": "Gral. Pinedo", "localidad": "Pampa Galvan", "nombre_o_i": "E.E.P nº 124 Anexo", "lat": "27° 19' 24,024\" S", "long": "61° 10' 30,792\" W" }, "geometry": { "type": "Point", "coordinates": [ -61.17522, -27.32334 ] } },
{ "type": "Feature", "properties": { "municipio": "Gral. Pinedo", "localidad": "Pampa Galvan", "nombre_o_i": "E.E.P nº 126", "lat": "27° 21' 50,184\" S", "long": "61° 6' 48,348\" W" }, "geometry": { "type": "Point", "coordinates": [ -61.11343, -27.36394 ] } },
{ "type": "Feature", "properties": { "municipio": "Gral. Pinedo", "localidad": "Pampa Landriel", "nombre_o_i": "E.E.P nº 567 del Congreso de Tucuman", "lat": "27° 23' 47,976\" S", "long": "61° 6' 15,372\" W" }, "geometry": { "type": "Point", "coordinates": [ -61.10427, -27.39666 ] } },
{ "type": "Feature", "properties": { "municipio": "Gral. Pinedo", "localidad": "Pampa Landriel", "nombre_o_i": "E.E.P nº 317", "lat": "27° 25' 31,692\" S", "long": "61° 5' 27,960\" W" }, "geometry": { "type": "Point", "coordinates": [ -61.0911, -27.42547 ] } },
{ "type": "Feature", "properties": { "municipio": "Gral. Pinedo", "localidad": "Meson de Fierro", "nombre_o_i": "Jardin de Infantes Anexo E.E.P nº184", "lat": "27° 25' 43,932\" S", "long": "61° 1' 7,356\" W" }, "geometry": { "type": "Point", "coordinates": [ -61.01871, -27.42887 ] } },
{ "type": "Feature", "properties": { "municipio": "Gral. Pinedo", "localidad": "Colonia Bravo", "nombre_o_i": "E.E.P nº 126 Anexo", "lat": "27° 21' 33,552\" S", "long": "61° 11' 14,676\" W" }, "geometry": { "type": "Point", "coordinates": [ -61.18741, -27.35932 ] } },
{ "type": "Feature", "properties": { "municipio": "Gral. Pinedo", "localidad": "Colonia Bravo", "nombre_o_i": "E.E.P nº 194 Anexo", "lat": "27° 20' 44,664\" S", "long": "61° 26' 2,220\" W" }, "geometry": { "type": "Point", "coordinates": [ -61.43395, -27.34574 ] } },
{ "type": "Feature", "properties": { "municipio": "Gral. Pinedo", "localidad": "Pampa Welbers", "nombre_o_i": "E.E.P nº 194", "lat": "27° 21' 42,624\" S", "long": "61° 22' 58,512\" W" }, "geometry": { "type": "Point", "coordinates": [ -61.38292, -27.36184 ] } },
{ "type": "Feature", "properties": { "municipio": "Charata", "localidad": "Charata", "nombre_o_i": "E.E.P nº 194", "lat": "27° 24' 13,860\" S", "long": "61° 18' 43,992\" W" }, "geometry": { "type": "Point", "coordinates": [ -61.31222, -27.40385 ] } },
{ "type": "Feature", "properties": { "municipio": "Gral. San Martín", "localidad": "Gral. San Martín", "nombre_o_i": "EEP A 409", "lat": "26° 28' 9,696\" S", "long": "58° 54' 19,188\" W" }, "geometry": { "type": "Point", "coordinates": [ -58.90533, -26.46936 ] } },
{ "type": "Feature", "properties": { "municipio": "Gral. San Martín", "localidad": "Gral. San Martín", "nombre_o_i": "EEP 409\/ Jardín A 409\/ EES 157", "lat": "26° 23' 6,972\" S", "long": "59° 1' 15,564\" W" }, "geometry": { "type": "Point", "coordinates": [ -59.02099, -26.38527 ] } },
{ "type": "Feature", "properties": { "municipio": "Gral. San Martín", "localidad": "Gral. San Martín", "nombre_o_i": "EEP A 409 - Pje. El Lunar", "lat": "26° 22' 16,824\" S", "long": "59° 5' 39,876\" W" }, "geometry": { "type": "Point", "coordinates": [ -59.09441, -26.37134 ] } },
{ "type": "Feature", "properties": { "municipio": "Gral. San Martín", "localidad": "Gral. San Martín", "nombre_o_i": "EEP 498\/ Jardín A 498\/ EPA A 62", "lat": "26° 22' 10,848\" S", "long": "59° 16' 3,936\" W" }, "geometry": { "type": "Point", "coordinates": [ -59.26776, -26.36968 ] } },
{ "type": "Feature", "properties": { "municipio": "Gral. San Martín", "localidad": "Gral. San Martín", "nombre_o_i": "Puesto Sanitario - Winter", "lat": "26° 22' 16,212\" S", "long": "59° 14' 32,244\" W" }, "geometry": { "type": "Point", "coordinates": [ -59.24229, -26.37117 ] } },
{ "type": "Feature", "properties": { "municipio": "Gral. San Martín", "localidad": "Gral. San Martín", "nombre_o_i": "EEP 398\/ Jardín A 398\/ Biblioteca 423\/ EES 156", "lat": "26° 23' 2,292\" S", "long": "59° 12' 54,720\" W" }, "geometry": { "type": "Point", "coordinates": [ -59.2152, -26.38397 ] } },
{ "type": "Feature", "properties": { "municipio": "Gral. San Martín", "localidad": "Gral. San Martín", "nombre_o_i": "EEP A 398", "lat": "26° 26' 16,188\" S", "long": "59° 12' 22,752\" W" }, "geometry": { "type": "Point", "coordinates": [ -59.20632, -26.43783 ] } },
{ "type": "Feature", "properties": { "municipio": "Gral. San Martín", "localidad": "Gral. San Martín", "nombre_o_i": "EEP 428", "lat": "26° 27' 19,188\" S", "long": "59° 17' 6,216\" W" }, "geometry": { "type": "Point", "coordinates": [ -59.28506, -26.45533 ] } },
{ "type": "Feature", "properties": { "municipio": "Gral. San Martín", "localidad": "Gral. San Martín", "nombre_o_i": "EEP 753\/ jardín A 753", "lat": "26° 30' 1,548\" S", "long": "59° 23' 4,956\" W" }, "geometry": { "type": "Point", "coordinates": [ -59.38471, -26.50043 ] } },
{ "type": "Feature", "properties": { "municipio": "Gral. San Martín", "localidad": "Gral. San Martín", "nombre_o_i": "EEP A 753", "lat": "26° 29' 18,492\" S", "long": "59° 26' 28,680\" W" }, "geometry": { "type": "Point", "coordinates": [ -59.4413, -26.48847 ] } },
{ "type": "Feature", "properties": { "municipio": "Gral. San Martín", "localidad": "Gral. San Martín", "nombre_o_i": "EEP A 56\/ Jardín A 56", "lat": "26° 26' 51,828\" S", "long": "59° 25' 44,832\" W" }, "geometry": { "type": "Point", "coordinates": [ -59.42912, -26.44773 ] } },
{ "type": "Feature", "properties": { "municipio": "Gral. San Martín", "localidad": "Gral. San Martín", "nombre_o_i": "Puesto Sanitario - Siete Arboles", "lat": "26° 25' 24,744\" S", "long": "59° 25' 28,632\" W" }, "geometry": { "type": "Point", "coordinates": [ -59.42462, -26.42354 ] } },
{ "type": "Feature", "properties": { "municipio": "Gral. San Martín", "localidad": "Gral. San Martín", "nombre_o_i": "EEP 205\/ Jardín A 205", "lat": "26° 23' 54,528\" S", "long": "59° 27' 3,456\" W" }, "geometry": { "type": "Point", "coordinates": [ -59.45096, -26.39848 ] } },
{ "type": "Feature", "properties": { "municipio": "Gral. San Martín", "localidad": "Gral. San Martín", "nombre_o_i": "Agrotécnica 8\/ Biblioteca Fabiana Malena Viñuela", "lat": "26° 27' 17,892\" S", "long": "59° 22' 25,140\" W" }, "geometry": { "type": "Point", "coordinates": [ -59.37365, -26.45497 ] } },
{ "type": "Feature", "properties": { "municipio": "Gral. San Martín", "localidad": "Gral. San Martín", "nombre_o_i": "Centro de Equinoterapia", "lat": "26° 30' 25,272\" S", "long": "59° 20' 17,916\" W" }, "geometry": { "type": "Point", "coordinates": [ -59.33831, -26.50702 ] } },
{ "type": "Feature", "properties": { "municipio": "Gral. San Martín", "localidad": "Gral. San Martín", "nombre_o_i": "EEP A 498", "lat": "26° 18' 53,640\" S", "long": "59° 23' 3,228\" W" }, "geometry": { "type": "Point", "coordinates": [ -59.38423, -26.3149 ] } },
{ "type": "Feature", "properties": { "municipio": "Gral. San Martín", "localidad": "Gral. San Martín", "nombre_o_i": "Escuela A Pto. Zapallar", "lat": "26° 16' 38,388\" S", "long": "59° 24' 41,256\" W" }, "geometry": { "type": "Point", "coordinates": [ -59.41146, -26.27733 ] } },
{ "type": "Feature", "properties": { "municipio": "Gral. San Martín", "localidad": "Gral. San Martín", "nombre_o_i": "Puesto Sanitario - Lote 60", "lat": "26° 25' 58,044\" S", "long": "59° 20' 30,156\" W" }, "geometry": { "type": "Point", "coordinates": [ -59.34171, -26.43279 ] } },
{ "type": "Feature", "properties": { "municipio": "Gral. San Martín", "localidad": "Gral. San Martín", "nombre_o_i": "EEP 206", "lat": "26° 24' 45,036\" S", "long": "59° 19' 31,944\" W" }, "geometry": { "type": "Point", "coordinates": [ -59.32554, -26.41251 ] } },
{ "type": "Feature", "properties": { "municipio": "Gral. San Martín", "localidad": "Gral. San Martín", "nombre_o_i": "EEP 788", "lat": "26° 26' 57,444\" S", "long": "59° 19' 13,872\" W" }, "geometry": { "type": "Point", "coordinates": [ -59.32052, -26.44929 ] } },
{ "type": "Feature", "properties": { "municipio": "Gral. San Martín", "localidad": "Gral. San Martín", "nombre_o_i": "Puesto Sanitario - Laguna Lobo", "lat": "26° 28' 42,744\" S", "long": "59° 18' 46,152\" W" }, "geometry": { "type": "Point", "coordinates": [ -59.31282, -26.47854 ] } },
{ "type": "Feature", "properties": { "municipio": "Gral. San Martín", "localidad": "Gral. San Martín", "nombre_o_i": "EEP A 246 (ex Esc.500) - Pampa Almirón", "lat": "26° 41' 14,352\" S", "long": "59° 15' 10,332\" W" }, "geometry": { "type": "Point", "coordinates": [ -59.25287, -26.68732 ] } },
{ "type": "Feature", "properties": { "municipio": "Gral. San Martín", "localidad": "Laguna El Tigre", "nombre_o_i": "EEP 100 Cap.Oreste Arbo y Blanco", "lat": "26° 36' 19,152\" S", "long": "59° 18' 57,024\" W" }, "geometry": { "type": "Point", "coordinates": [ -59.31584, -26.60532 ] } },
{ "type": "Feature", "properties": { "municipio": "Gral. San Martín", "localidad": "Laguna El Tigre", "nombre_o_i": "EEP A 100 (Iglesia San Francisco)", "lat": "26° 33' 49,068\" S", "long": "59° 18' 9,648\" W" }, "geometry": { "type": "Point", "coordinates": [ -59.30268, -26.56363 ] } },
{ "type": "Feature", "properties": { "municipio": "Gral. San Martín", "localidad": "Gral. San Martín", "nombre_o_i": "EEP 642 - El Fiscal", "lat": "26° 31' 35,580\" S", "long": "59° 14' 38,508\" W" }, "geometry": { "type": "Point", "coordinates": [ -59.24403, -26.52655 ] } },
{ "type": "Feature", "properties": { "municipio": "Gral. San Martín", "localidad": "Gral. San Martín", "nombre_o_i": "EEP 346", "lat": "26° 31' 48,324\" S", "long": "59° 17' 6,216\" W" }, "geometry": { "type": "Point", "coordinates": [ -59.28506, -26.53009 ] } },
{ "type": "Feature", "properties": { "municipio": "Gral. San Martín", "localidad": "Gral. San Martín", "nombre_o_i": "EGB 497 Rosa Ramona Valdez\/ EFA 141", "lat": "26° 30' 54,288\" S", "long": "59° 13' 32,916\" W" }, "geometry": { "type": "Point", "coordinates": [ -59.22581, -26.51508 ] } },
{ "type": "Feature", "properties": { "municipio": "Gral. San Martín", "localidad": "Gral. San Martín", "nombre_o_i": "EGB", "lat": "26° 33' 3,420\" S", "long": "59° 10' 58,800\" W" }, "geometry": { "type": "Point", "coordinates": [ -59.183, -26.55095 ] } },
{ "type": "Feature", "properties": { "municipio": "Gral. San Martín", "localidad": "Gral. San Martín", "nombre_o_i": "EGB 710", "lat": "26° 34' 42,060\" S", "long": "59° 8' 38,724\" W" }, "geometry": { "type": "Point", "coordinates": [ -59.14409, -26.57835 ] } },
{ "type": "Feature", "properties": { "municipio": "Gral. San Martín", "localidad": "Gral. San Martín", "nombre_o_i": "EGB 710", "lat": "26° 34' 43,716\" S", "long": "59° 6' 9,936\" W" }, "geometry": { "type": "Point", "coordinates": [ -59.10276, -26.57881 ] } },
{ "type": "Feature", "properties": { "municipio": "Gral. San Martín", "localidad": "Gral. San Martín", "nombre_o_i": "EGB A 278 (Estancia Las Mercedes)", "lat": "26° 47' 44,880\" S", "long": "59° 14' 30,156\" W" }, "geometry": { "type": "Point", "coordinates": [ -59.24171, -26.7958 ] } },
{ "type": "Feature", "properties": { "municipio": "Gral. San Martín", "localidad": "Gral. San Martín", "nombre_o_i": "EEP A 495 Mtra. Sandra Marquez\/ EES 160", "lat": "26° 27' 41,004\" S", "long": "59° 20' 51,504\" W" }, "geometry": { "type": "Point", "coordinates": [ -59.34764, -26.46139 ] } },
{ "type": "Feature", "properties": { "municipio": "Gral. San Martín", "localidad": "Gral. San Martín", "nombre_o_i": "EEP 757\/ Jardín A 757\/ EPA 757", "lat": "26° 24' 9,756\" S", "long": "59° 22' 40,296\" W" }, "geometry": { "type": "Point", "coordinates": [ -59.37786, -26.40271 ] } },
{ "type": "Feature", "properties": { "municipio": "Gral. San Martín", "localidad": "Gral. San Martín", "nombre_o_i": "EEP A 757", "lat": "26° 22' 2,784\" S", "long": "59° 22' 36,480\" W" }, "geometry": { "type": "Point", "coordinates": [ -59.3768, -26.36744 ] } },
{ "type": "Feature", "properties": { "municipio": "Gral. San Martín", "localidad": "Gral. San Martín", "nombre_o_i": "EGB A 100 (ex 325)", "lat": "26° 35' 34,908\" S", "long": "59° 22' 54,192\" W" }, "geometry": { "type": "Point", "coordinates": [ -59.38172, -26.59303 ] } },
{ "type": "Feature", "properties": { "municipio": "Gral. San Martín", "localidad": "Gral. San Martín", "nombre_o_i": "EGB A 100 (ex 542)", "lat": "26° 38' 6,972\" S", "long": "59° 24' 34,560\" W" }, "geometry": { "type": "Point", "coordinates": [ -59.4096, -26.63527 ] } },
{ "type": "Feature", "properties": { "municipio": "General Vedia", "localidad": "General Vedia", "nombre_o_i": null, "lat": "26° 57' 56,736\" S", "long": "58° 35' 53,376\" W" }, "geometry": { "type": "Point", "coordinates": [ -58.59816, -26.96576 ] } },
{ "type": "Feature", "properties": { "municipio": "General Vedia", "localidad": "General Vedia", "nombre_o_i": null, "lat": "26° 57' 36,360\" S", "long": "58° 40' 1,632\" W" }, "geometry": { "type": "Point", "coordinates": [ -58.66712, -26.9601 ] } },
{ "type": "Feature", "properties": { "municipio": "General Vedia", "localidad": "General Vedia", "nombre_o_i": null, "lat": "26° 56' 40,416\" S", "long": "58° 42' 40,536\" W" }, "geometry": { "type": "Point", "coordinates": [ -58.71126, -26.94456 ] } },
{ "type": "Feature", "properties": { "municipio": "General Vedia", "localidad": "General Vedia", "nombre_o_i": null, "lat": "26° 56' 35,736\" S", "long": "58° 44' 58,524\" W" }, "geometry": { "type": "Point", "coordinates": [ -58.74959, -26.94326 ] } },
{ "type": "Feature", "properties": { "municipio": "General Vedia", "localidad": "General Vedia", "nombre_o_i": null, "lat": "26° 55' 17,292\" S", "long": "58° 46' 43,932\" W" }, "geometry": { "type": "Point", "coordinates": [ -58.77887, -26.92147 ] } },
{ "type": "Feature", "properties": { "municipio": "General Vedia", "localidad": "General Vedia", "nombre_o_i": null, "lat": "26° 51' 59,976\" S", "long": "58° 48' 16,848\" W" }, "geometry": { "type": "Point", "coordinates": [ -58.80468, -26.86666 ] } },
{ "type": "Feature", "properties": { "municipio": "Hermoso Campo", "localidad": "Hermoso Campo", "nombre_o_i": "E.E.P nº 479", "lat": "27° 31' 11,028\" S", "long": "61° 13' 12,072\" W" }, "geometry": { "type": "Point", "coordinates": [ -61.22002, -27.51973 ] } },
{ "type": "Feature", "properties": { "municipio": "Hermoso Campo", "localidad": "Hermoso Campo", "nombre_o_i": "E.E.P nº 631 Aeronautica Argentina", "lat": "27° 28' 50,952\" S", "long": "61° 5' 27,492\" W" }, "geometry": { "type": "Point", "coordinates": [ -61.09097, -27.48082 ] } },
{ "type": "Feature", "properties": { "municipio": "Hermoso Campo", "localidad": "Hermoso Campo", "nombre_o_i": "Nivel B", "lat": "27° 33' 33,768\" S", "long": "61° 4' 21,180\" W" }, "geometry": { "type": "Point", "coordinates": [ -61.07255, -27.55938 ] } },
{ "type": "Feature", "properties": { "municipio": "Hermoso Campo", "localidad": "Hermoso Campo", "nombre_o_i": "E.E.P nº 879 Hermandad Latinoamericana 12 de Octubre", "lat": "27° 36' 56,772\" S", "long": "61° 4' 11,532\" W" }, "geometry": { "type": "Point", "coordinates": [ -61.06987, -27.61577 ] } },
{ "type": "Feature", "properties": { "municipio": "Hermoso Campo", "localidad": "Hermoso Campo", "nombre_o_i": "E.E.P nº 466", "lat": "27° 38' 16,584\" S", "long": "61° 7' 49,188\" W" }, "geometry": { "type": "Point", "coordinates": [ -61.13033, -27.63794 ] } },
{ "type": "Feature", "properties": { "municipio": "Hermoso Campo", "localidad": "Hermoso Campo", "nombre_o_i": "E.E.P nº 484", "lat": "27° 35' 50,748\" S", "long": "61° 7' 54,228\" W" }, "geometry": { "type": "Point", "coordinates": [ -61.13173, -27.59743 ] } },
{ "type": "Feature", "properties": { "municipio": "Hermoso Campo", "localidad": "Hermoso Campo", "nombre_o_i": "E.E.P nº 867", "lat": "27° 39' 29,340\" S", "long": "61° 15' 8,820\" W" }, "geometry": { "type": "Point", "coordinates": [ -61.25245, -27.65815 ] } },
{ "type": "Feature", "properties": { "municipio": "Hermoso Campo", "localidad": "Hermoso Campo", "nombre_o_i": "E.E.P nº 583", "lat": "27° 40' 44,040\" S", "long": "61° 17' 43,332\" W" }, "geometry": { "type": "Point", "coordinates": [ -61.29537, -27.6789 ] } },
{ "type": "Feature", "properties": { "municipio": "Hermoso Campo", "localidad": "Hermoso Campo", "nombre_o_i": "E.E.P nº 538 Eugenio Leroux", "lat": "27° 45' 37,260\" S", "long": "61° 18' 4,284\" W" }, "geometry": { "type": "Point", "coordinates": [ -61.30119, -27.76035 ] } },
{ "type": "Feature", "properties": { "municipio": "Hermoso Campo", "localidad": "Hermoso Campo", "nombre_o_i": "E.E.P nº 575", "lat": "27° 45' 36,936\" S", "long": "61° 15' 46,116\" W" }, "geometry": { "type": "Point", "coordinates": [ -61.26281, -27.76026 ] } },
{ "type": "Feature", "properties": { "municipio": "Hermoso Campo", "localidad": "Hermoso Campo", "nombre_o_i": "E.E.P nº 28 Fray Luis Bolaños", "lat": "27° 43' 8,652\" S", "long": "61° 21' 52,092\" W" }, "geometry": { "type": "Point", "coordinates": [ -61.36447, -27.71907 ] } },
{ "type": "Feature", "properties": { "municipio": "Hermoso Campo", "localidad": "Hermoso Campo", "nombre_o_i": "E.E.P nº 28 Fray Luis Bolaños Anexo", "lat": "27° 42' 57,240\" S", "long": "61° 26' 5,424\" W" }, "geometry": { "type": "Point", "coordinates": [ -61.43484, -27.7159 ] } },
{ "type": "Feature", "properties": { "municipio": "Hermoso Campo", "localidad": "Hermoso Campo", "nombre_o_i": "E.E.P nº 841", "lat": "27° 39' 28,620\" S", "long": "61° 20' 16,800\" W" }, "geometry": { "type": "Point", "coordinates": [ -61.338, -27.65795 ] } },
{ "type": "Feature", "properties": { "municipio": "Hermoso Campo", "localidad": "Hermoso Campo", "nombre_o_i": "E.E.P nº 876", "lat": "27° 32' 48,372\" S", "long": "61° 22' 19,056\" W" }, "geometry": { "type": "Point", "coordinates": [ -61.37196, -27.54677 ] } },
{ "type": "Feature", "properties": { "municipio": "Hermoso Campo", "localidad": "Hermoso Campo", "nombre_o_i": "E.E.P nº 841", "lat": "27° 32' 48,228\" S", "long": "61° 26' 14,136\" W" }, "geometry": { "type": "Point", "coordinates": [ -61.43726, -27.54673 ] } },
{ "type": "Feature", "properties": { "municipio": "Hermoso Campo", "localidad": "Itin", "nombre_o_i": "M.I.J.D", "lat": "27° 29' 9,528\" S", "long": "61° 19' 26,616\" W" }, "geometry": { "type": "Point", "coordinates": [ -61.32406, -27.48598 ] } },
{ "type": "Feature", "properties": { "municipio": "Isla del Cerrito", "localidad": "Isla del Cerrito", "nombre_o_i": "N° 796 Ciudad de Buenos Aires", "lat": "27° 18' 20,160\" S", "long": "58° 42' 48,420\" W" }, "geometry": { "type": "Point", "coordinates": [ -58.71345, -27.3056 ] } },
{ "type": "Feature", "properties": { "municipio": "Juan José Castelli", "localidad": "Juan José Castelli", "nombre_o_i": "\"B\" PAMPA ARGENTINA", "lat": "25° 52' 0,444\" S", "long": "60° 33' 21,552\" W" }, "geometry": { "type": "Point", "coordinates": [ -60.555987, -25.86679 ] } },
{ "type": "Feature", "properties": { "municipio": "Juan José Castelli", "localidad": "Juan José Castelli", "nombre_o_i": "\"B\" CAMPO DE MAYO", "lat": "25° 29' 58,336\" S", "long": "60° 36' 43,831\" W" }, "geometry": { "type": "Point", "coordinates": [ -60.612175, -25.499538 ] } },
{ "type": "Feature", "properties": { "municipio": "Juan José Castelli", "localidad": "Juan José Castelli", "nombre_o_i": "\"B\" SANTA CARMEN", "lat": "25° 52' 16,974\" S", "long": "60° 7' 3,846\" W" }, "geometry": { "type": "Point", "coordinates": [ -60.117735, -25.871382 ] } },
{ "type": "Feature", "properties": { "municipio": "Juan José Castelli", "localidad": "Juan José Castelli", "nombre_o_i": "\"B\" PUERTA NEGRA", "lat": "25° 48' 42,111\" S", "long": "60° 41' 7,869\" W" }, "geometry": { "type": "Point", "coordinates": [ -60.685519, -25.811697 ] } },
{ "type": "Feature", "properties": { "municipio": "Juan José Castelli", "localidad": "Juan José Castelli", "nombre_o_i": "\"B\" SAN ROQUE", "lat": "25° 47' 19,435\" S", "long": "60° 55' 1,671\" W" }, "geometry": { "type": "Point", "coordinates": [ -60.917131, -25.788732 ] } },
{ "type": "Feature", "properties": { "municipio": "Juan José Castelli", "localidad": "Juan José Castelli", "nombre_o_i": "\"B\" PUERTA NEGRA", "lat": "25° 46' 28,896\" S", "long": "60° 39' 1,730\" W" }, "geometry": { "type": "Point", "coordinates": [ -60.65048, -25.774693 ] } },
{ "type": "Feature", "properties": { "municipio": "Juan José Castelli", "localidad": "Juan José Castelli", "nombre_o_i": "EEP 919", "lat": "25° 55' 18,422\" S", "long": "60° 56' 57,888\" W" }, "geometry": { "type": "Point", "coordinates": [ -60.949413, -25.921784 ] } },
{ "type": "Feature", "properties": { "municipio": "Juan José Castelli", "localidad": "Juan José Castelli", "nombre_o_i": "EEP 485", "lat": "25° 49' 37,261\" S", "long": "60° 50' 14,014\" W" }, "geometry": { "type": "Point", "coordinates": [ -60.837226, -25.827017 ] } },
{ "type": "Feature", "properties": { "municipio": "Juan José Castelli", "localidad": "Juan José Castelli", "nombre_o_i": "EEP 735", "lat": "25° 45' 17,519\" S", "long": "60° 42' 52,197\" W" }, "geometry": { "type": "Point", "coordinates": [ -60.714499, -25.754867 ] } },
{ "type": "Feature", "properties": { "municipio": "Juan José Castelli", "localidad": "Juan José Castelli", "nombre_o_i": "EEP 883 ANEXO LA UNION", "lat": "25° 44' 52,842\" S", "long": "61° 1' 38,811\" W" }, "geometry": { "type": "Point", "coordinates": [ -61.027447, -25.748012 ] } },
{ "type": "Feature", "properties": { "municipio": "Juan José Castelli", "localidad": "Juan José Castelli", "nombre_o_i": "EEP 888 PAMPA NUEVA", "lat": "25° 57' 9,479\" S", "long": "60° 51' 25,444\" W" }, "geometry": { "type": "Point", "coordinates": [ -60.857068, -25.952633 ] } },
{ "type": "Feature", "properties": { "municipio": "Juan José Castelli", "localidad": "Juan José Castelli", "nombre_o_i": "EEP 914", "lat": "25° 51' 58,686\" S", "long": "60° 23' 48,459\" W" }, "geometry": { "type": "Point", "coordinates": [ -60.396794, -25.866302 ] } },
{ "type": "Feature", "properties": { "municipio": "Juan José Castelli", "localidad": "Juan José Castelli", "nombre_o_i": "EEP 1039 ANEXO LA SELVA", "lat": "25° 48' 25,453\" S", "long": "60° 11' 35,392\" W" }, "geometry": { "type": "Point", "coordinates": [ -60.193165, -25.80707 ] } },
{ "type": "Feature", "properties": { "municipio": "Juan José Castelli", "localidad": "Juan José Castelli", "nombre_o_i": "EEP 323 ANEXO PUERTA NEGRA", "lat": "25° 48' 42,884\" S", "long": "60° 41' 5,275\" W" }, "geometry": { "type": "Point", "coordinates": [ -60.684798, -25.811912 ] } },
{ "type": "Feature", "properties": { "municipio": "Juan José Castelli", "localidad": "Juan José Castelli", "nombre_o_i": "EEP 519 ANEXO POZO DEL TORO", "lat": "25° 46' 23,212\" S", "long": "60° 43' 49,661\" W" }, "geometry": { "type": "Point", "coordinates": [ -60.730462, -25.773114 ] } },
{ "type": "Feature", "properties": { "municipio": "Juan José Castelli", "localidad": "Juan José Castelli", "nombre_o_i": "EEP 578", "lat": "25° 52' 58,523\" S", "long": "60° 33' 9,471\" W" }, "geometry": { "type": "Point", "coordinates": [ -60.552631, -25.882923 ] } },
{ "type": "Feature", "properties": { "municipio": "Juan José Castelli", "localidad": "Juan José Castelli", "nombre_o_i": "EEP 578 ANEXO PAMPA ARGENTINA", "lat": "25° 51' 32,033\" S", "long": "60° 31' 47,050\" W" }, "geometry": { "type": "Point", "coordinates": [ -60.529736, -25.858898 ] } },
{ "type": "Feature", "properties": { "municipio": "Juan José Castelli", "localidad": "Juan José Castelli", "nombre_o_i": "EEP 600 PEDRO MIGUEL ARAOZ", "lat": "25° 56' 0,644\" S", "long": "60° 24' 35,477\" W" }, "geometry": { "type": "Point", "coordinates": [ -60.409855, -25.933512 ] } },
{ "type": "Feature", "properties": { "municipio": "Juan José Castelli", "localidad": "Juan José Castelli", "nombre_o_i": "EEP 604 ANEXO LA NUEVA UNION", "lat": "25° 47' 38,227\" S", "long": "60° 58' 36,747\" W" }, "geometry": { "type": "Point", "coordinates": [ -60.976874, -25.793952 ] } },
{ "type": "Feature", "properties": { "municipio": "Juan José Castelli", "localidad": "Juan José Castelli", "nombre_o_i": "EEP 733 EJERCITO ARGENTINO", "lat": "25° 52' 38,496\" S", "long": "60° 51' 25,423\" W" }, "geometry": { "type": "Point", "coordinates": [ -60.857062, -25.87736 ] } },
{ "type": "Feature", "properties": { "municipio": "Juan José Castelli", "localidad": "Juan José Castelli", "nombre_o_i": "EEP 745", "lat": "25° 51' 42,537\" S", "long": "60° 55' 42,718\" W" }, "geometry": { "type": "Point", "coordinates": [ -60.928533, -25.861816 ] } },
{ "type": "Feature", "properties": { "municipio": "Juan José Castelli", "localidad": "Juan José Castelli", "nombre_o_i": "EEP 76", "lat": "25° 50' 43,949\" S", "long": "60° 46' 37,692\" W" }, "geometry": { "type": "Point", "coordinates": [ -60.777137, -25.845541 ] } },
{ "type": "Feature", "properties": { "municipio": "Juan José Castelli", "localidad": "Juan José Castelli", "nombre_o_i": "EEP 787 ANEXO LA VICTORIA", "lat": "25° 54' 4,118\" S", "long": "60° 8' 50,099\" W" }, "geometry": { "type": "Point", "coordinates": [ -60.14725, -25.901144 ] } },
{ "type": "Feature", "properties": { "municipio": "Juan José Castelli", "localidad": "Juan José Castelli", "nombre_o_i": "EEP 872 ANEXO LA MARAVILLA", "lat": "25° 53' 9,065\" S", "long": "60° 19' 34,216\" W" }, "geometry": { "type": "Point", "coordinates": [ -60.326171, -25.885851 ] } },
{ "type": "Feature", "properties": { "municipio": "Juan José Castelli", "localidad": "Juan José Castelli", "nombre_o_i": "EEP 872", "lat": "25° 56' 30,806\" S", "long": "60° 19' 38,688\" W" }, "geometry": { "type": "Point", "coordinates": [ -60.327413, -25.941891 ] } },
{ "type": "Feature", "properties": { "municipio": "Juan José Castelli", "localidad": "Juan José Castelli", "nombre_o_i": "EEP 937", "lat": "25° 53' 23,059\" S", "long": "61° 7' 30,998\" W" }, "geometry": { "type": "Point", "coordinates": [ -61.125277, -25.889739 ] } },
{ "type": "Feature", "properties": { "municipio": "Juan José Castelli", "localidad": "Juan José Castelli", "nombre_o_i": "EEP 937 ANEXO RIO MUERTO", "lat": "25° 48' 54,999\" S", "long": "61° 8' 53,637\" W" }, "geometry": { "type": "Point", "coordinates": [ -61.148233, -25.815277 ] } },
{ "type": "Feature", "properties": { "municipio": "Juan José Castelli", "localidad": "Juan José Castelli", "nombre_o_i": "EEP 948", "lat": "25° 42' 40,397\" S", "long": "60° 40' 35,563\" W" }, "geometry": { "type": "Point", "coordinates": [ -60.676545, -25.711222 ] } },
{ "type": "Feature", "properties": { "municipio": "Juan José Castelli", "localidad": "Juan José Castelli", "nombre_o_i": "EEP 960", "lat": "25° 49' 5,199\" S", "long": "60° 27' 9,222\" W" }, "geometry": { "type": "Point", "coordinates": [ -60.452562, -25.818111 ] } },
{ "type": "Feature", "properties": { "municipio": "Juan José Castelli", "localidad": "Juan José Castelli", "nombre_o_i": "EEP 980", "lat": "25° 46' 41,415\" S", "long": "60° 14' 59,430\" W" }, "geometry": { "type": "Point", "coordinates": [ -60.249842, -25.778171 ] } },
{ "type": "Feature", "properties": { "municipio": "Juan José Castelli", "localidad": "Juan José Castelli", "nombre_o_i": "EEP 981", "lat": "25° 48' 7,184\" S", "long": "60° 35' 46,781\" W" }, "geometry": { "type": "Point", "coordinates": [ -60.596328, -25.801996 ] } },
{ "type": "Feature", "properties": { "municipio": "Juan José Castelli", "localidad": "Juan José Castelli", "nombre_o_i": "EEP 937 ANEXO EL PALOMO", "lat": "25° 50' 27,119\" S", "long": "61° 2' 55,519\" W" }, "geometry": { "type": "Point", "coordinates": [ -61.048755, -25.840866 ] } },
{ "type": "Feature", "properties": { "municipio": "Juan José Castelli", "localidad": "Juan José Castelli", "nombre_o_i": "JARDIN DE INFANTES ANEXO EEP 787", "lat": "25° 52' 16,746\" S", "long": "60° 7' 1,211\" W" }, "geometry": { "type": "Point", "coordinates": [ -60.117003, -25.871318 ] } },
{ "type": "Feature", "properties": { "municipio": "Juan José Castelli", "localidad": "Juan José Castelli", "nombre_o_i": "EEP 578 ANEXO PJE VILLA FORTUNY", "lat": "25° 54' 9,365\" S", "long": "60° 36' 46,601\" W" }, "geometry": { "type": "Point", "coordinates": [ -60.612945, -25.902601 ] } },
{ "type": "Feature", "properties": { "municipio": "Juan José Castelli", "localidad": "Juan José Castelli", "nombre_o_i": "EEP 323 - REV PADRE JUAN HOLZER", "lat": "25° 52' 57,395\" S", "long": "60° 42' 56,597\" W" }, "geometry": { "type": "Point", "coordinates": [ -60.715721, -25.88261 ] } },
{ "type": "Feature", "properties": { "municipio": "Juan José Castelli", "localidad": "Juan José Castelli", "nombre_o_i": "EEP 1036", "lat": "26° 6' 13,867\" S", "long": "60° 25' 54,476\" W" }, "geometry": { "type": "Point", "coordinates": [ -60.431799, -26.103852 ] } },
{ "type": "Feature", "properties": { "municipio": "Juan José Castelli", "localidad": "Juan José Castelli", "nombre_o_i": "EEP 1077 - ANEXO CAMPO ALTO", "lat": "26° 0' 2,549\" S", "long": "60° 13' 50,365\" W" }, "geometry": { "type": "Point", "coordinates": [ -60.230657, -26.000708 ] } },
{ "type": "Feature", "properties": { "municipio": "Juan José Castelli", "localidad": "Juan José Castelli", "nombre_o_i": "EEP 129", "lat": "26° 0' 38,637\" S", "long": "60° 36' 11,306\" W" }, "geometry": { "type": "Point", "coordinates": [ -60.60314, -26.010732 ] } },
{ "type": "Feature", "properties": { "municipio": "Juan José Castelli", "localidad": "Juan José Castelli", "nombre_o_i": "EEP 474", "lat": "25° 58' 26,684\" S", "long": "60° 16' 35,947\" W" }, "geometry": { "type": "Point", "coordinates": [ -60.276652, -25.974079 ] } },
{ "type": "Feature", "properties": { "municipio": "Juan José Castelli", "localidad": "Juan José Castelli", "nombre_o_i": "EEP 226 - TENIENTE BENJAMIN MATIENZO", "lat": "26° 2' 55,251\" S", "long": "60° 26' 54,899\" W" }, "geometry": { "type": "Point", "coordinates": [ -60.448583, -26.048681 ] } },
{ "type": "Feature", "properties": { "municipio": "Juan José Castelli", "localidad": "Juan José Castelli", "nombre_o_i": "EEP 226 ANEXO", "lat": "26° 2' 23,877\" S", "long": "60° 23' 57,088\" W" }, "geometry": { "type": "Point", "coordinates": [ -60.399191, -26.039966 ] } },
{ "type": "Feature", "properties": { "municipio": "Juan José Castelli", "localidad": "Juan José Castelli", "nombre_o_i": "EEP 232", "lat": "25° 58' 32,628\" S", "long": "60° 32' 16,746\" W" }, "geometry": { "type": "Point", "coordinates": [ -60.537985, -25.97573 ] } },
{ "type": "Feature", "properties": { "municipio": "Juan José Castelli", "localidad": "Juan José Castelli", "nombre_o_i": "EEP 243", "lat": "25° 57' 56,887\" S", "long": "60° 41' 52,368\" W" }, "geometry": { "type": "Point", "coordinates": [ -60.69788, -25.965802 ] } },
{ "type": "Feature", "properties": { "municipio": "Juan José Castelli", "localidad": "Juan José Castelli", "nombre_o_i": "EEP 243 ANEXO", "lat": "25° 58' 50,632\" S", "long": "60° 45' 51,401\" W" }, "geometry": { "type": "Point", "coordinates": [ -60.764278, -25.980731 ] } },
{ "type": "Feature", "properties": { "municipio": "Juan José Castelli", "localidad": "Juan José Castelli", "nombre_o_i": "EEP 254", "lat": "26° 1' 40,732\" S", "long": "60° 38' 56,690\" W" }, "geometry": { "type": "Point", "coordinates": [ -60.64908, -26.027981 ] } },
{ "type": "Feature", "properties": { "municipio": "Juan José Castelli", "localidad": "Juan José Castelli", "nombre_o_i": "EEP 296 - LUIS GONZALEZ LEIVA", "lat": "26° 4' 18,306\" S", "long": "60° 44' 23,799\" W" }, "geometry": { "type": "Point", "coordinates": [ -60.739944, -26.071752 ] } },
{ "type": "Feature", "properties": { "municipio": "Juan José Castelli", "localidad": "Juan José Castelli", "nombre_o_i": "EEP 358 ANEXO BELLA VISTA", "lat": "26° 7' 4,598\" S", "long": "60° 34' 12,900\" W" }, "geometry": { "type": "Point", "coordinates": [ -60.57025, -26.117944 ] } },
{ "type": "Feature", "properties": { "municipio": "Juan José Castelli", "localidad": "Juan José Castelli", "nombre_o_i": "EEP 359", "lat": "26° 4' 0,365\" S", "long": "60° 30' 29,538\" W" }, "geometry": { "type": "Point", "coordinates": [ -60.508205, -26.066768 ] } },
{ "type": "Feature", "properties": { "municipio": "Juan José Castelli", "localidad": "Juan José Castelli", "nombre_o_i": "EEP 405", "lat": "26° 0' 52,843\" S", "long": "60° 29' 30,005\" W" }, "geometry": { "type": "Point", "coordinates": [ -60.491668, -26.014679 ] } },
{ "type": "Feature", "properties": { "municipio": "Juan José Castelli", "localidad": "Juan José Castelli", "nombre_o_i": "EEP 429", "lat": "26° 6' 17,124\" S", "long": "60° 23' 35,058\" W" }, "geometry": { "type": "Point", "coordinates": [ -60.393072, -26.104757 ] } },
{ "type": "Feature", "properties": { "municipio": "Juan José Castelli", "localidad": "Juan José Castelli", "nombre_o_i": "EEP 525 CARMEN TOLOZA", "lat": "26° 3' 45,806\" S", "long": "60° 48' 45,276\" W" }, "geometry": { "type": "Point", "coordinates": [ -60.812577, -26.062724 ] } },
{ "type": "Feature", "properties": { "municipio": "Juan José Castelli", "localidad": "Juan José Castelli", "nombre_o_i": "EEP 525 ANEXO PAMPA TOLOZA CHICA", "lat": "26° 6' 9,514\" S", "long": "60° 52' 13,733\" W" }, "geometry": { "type": "Point", "coordinates": [ -60.870481, -26.102643 ] } },
{ "type": "Feature", "properties": { "municipio": "Juan José Castelli", "localidad": "Juan José Castelli", "nombre_o_i": "EEP 651 - SILVIA MABEL SANDER", "lat": "26° 1' 18,126\" S", "long": "60° 32' 18,236\" W" }, "geometry": { "type": "Point", "coordinates": [ -60.538399, -26.021702 ] } },
{ "type": "Feature", "properties": { "municipio": "Juan José Castelli", "localidad": "Juan José Castelli", "nombre_o_i": "EEP 724", "lat": "26° 5' 37,024\" S", "long": "61° 7' 37,744\" W" }, "geometry": { "type": "Point", "coordinates": [ -61.127151, -26.093618 ] } },
{ "type": "Feature", "properties": { "municipio": "Juan José Castelli", "localidad": "Juan José Castelli", "nombre_o_i": "EEP 725", "lat": "26° 6' 52,067\" S", "long": "60° 18' 39,949\" W" }, "geometry": { "type": "Point", "coordinates": [ -60.311097, -26.114463 ] } },
{ "type": "Feature", "properties": { "municipio": "Juan José Castelli", "localidad": "Juan José Castelli", "nombre_o_i": "EEP 774", "lat": "26° 4' 22,544\" S", "long": "60° 20' 15,475\" W" }, "geometry": { "type": "Point", "coordinates": [ -60.337632, -26.072929 ] } },
{ "type": "Feature", "properties": { "municipio": "Juan José Castelli", "localidad": "Juan José Castelli", "nombre_o_i": "EEP 888 ANEXO", "lat": "25° 59' 50,451\" S", "long": "60° 54' 2,085\" W" }, "geometry": { "type": "Point", "coordinates": [ -60.900579, -25.997348 ] } },
{ "type": "Feature", "properties": { "municipio": "Juan José Castelli", "localidad": "Juan José Castelli", "nombre_o_i": "EEP 872 ANEXO", "lat": "25° 59' 12,261\" S", "long": "60° 21' 40,622\" W" }, "geometry": { "type": "Point", "coordinates": [ -60.361284, -25.986739 ] } },
{ "type": "Feature", "properties": { "municipio": "Juan José Castelli", "localidad": "Juan José Castelli", "nombre_o_i": "EEP 916", "lat": "26° 3' 3,676\" S", "long": "60° 12' 33,026\" W" }, "geometry": { "type": "Point", "coordinates": [ -60.209174, -26.051021 ] } },
{ "type": "Feature", "properties": { "municipio": "Juan José Castelli", "localidad": "Juan José Castelli", "nombre_o_i": "EEP 916 ANEXO", "lat": "26° 4' 44,569\" S", "long": "60° 8' 51,691\" W" }, "geometry": { "type": "Point", "coordinates": [ -60.147692, -26.079047 ] } },
{ "type": "Feature", "properties": { "municipio": "Juan José Castelli", "localidad": "Juan José Castelli", "nombre_o_i": "EEP 937 ANEXO EL SILENCIO", "lat": "26° 5' 26,076\" S", "long": "60° 57' 49,541\" W" }, "geometry": { "type": "Point", "coordinates": [ -60.963761, -26.090577 ] } },
{ "type": "Feature", "properties": { "municipio": "Juan José Castelli", "localidad": "Juan José Castelli", "nombre_o_i": "JARDIN DE INFANTES 132", "lat": "26° 4' 3,004\" S", "long": "60° 33' 49,435\" W" }, "geometry": { "type": "Point", "coordinates": [ -60.563732, -26.067501 ] } },
{ "type": "Feature", "properties": { "municipio": "La Clotilde", "localidad": "La Clotilde", "nombre_o_i": "EEP 1016 \/ Jardín 17 Clotilde R. de Lobato", "lat": "27° 10' 23,160\" S", "long": "60° 34' 33,168\" W" }, "geometry": { "type": "Point", "coordinates": [ -60.57588, -27.1731 ] } },
{ "type": "Feature", "properties": { "municipio": "La Clotilde", "localidad": "La Clotilde", "nombre_o_i": "EGB 340 \/ Jardín", "lat": "27° 13' 44,688\" S", "long": "60° 34' 37,020\" W" }, "geometry": { "type": "Point", "coordinates": [ -60.57695, -27.22908 ] } },
{ "type": "Feature", "properties": { "municipio": "La Clotilde", "localidad": "La Clotilde", "nombre_o_i": "EEGB 235", "lat": "27° 13' 43,068\" S", "long": "60° 37' 57,468\" W" }, "geometry": { "type": "Point", "coordinates": [ -60.63263, -27.22863 ] } },
{ "type": "Feature", "properties": { "municipio": "La Clotilde", "localidad": "La Clotilde", "nombre_o_i": "EEP 364 \/ Jardín A 17", "lat": "27° 10' 0,588\" S", "long": "60° 41' 46,536\" W" }, "geometry": { "type": "Point", "coordinates": [ -60.69626, -27.16683 ] } },
{ "type": "Feature", "properties": { "municipio": "La Clotilde", "localidad": "La Clotilde", "nombre_o_i": "EEP 174 \/ Jardín A 17", "lat": "27° 7' 55,308\" S", "long": "60° 45' 46,404\" W" }, "geometry": { "type": "Point", "coordinates": [ -60.76289, -27.13203 ] } },
{ "type": "Feature", "properties": { "municipio": "La Clotilde", "localidad": "La Clotilde", "nombre_o_i": "EEP 25 - Eleuterio Silva", "lat": "27° 11' 30,192\" S", "long": "60° 49' 4,800\" W" }, "geometry": { "type": "Point", "coordinates": [ -60.818, -27.19172 ] } },
{ "type": "Feature", "properties": { "municipio": "La Clotilde", "localidad": "La Clotilde", "nombre_o_i": "EEP 459 - Hipólito Bouchard", "lat": "27° 12' 35,460\" S", "long": "60° 42' 57,816\" W" }, "geometry": { "type": "Point", "coordinates": [ -60.71606, -27.20985 ] } },
{ "type": "Feature", "properties": { "municipio": "La Eduvigis", "localidad": "La Eduvigis", "nombre_o_i": "BLA Selva de Oro (Com.Terap.La Eduvigis)", "lat": "26° 51' 42,228\" S", "long": "59° 4' 48,504\" W" }, "geometry": { "type": "Point", "coordinates": [ -59.08014, -26.86173 ] } },
{ "type": "Feature", "properties": { "municipio": "La Eduvigis", "localidad": "La Eduvigis", "nombre_o_i": "EGB 278 Francisco Soulhe\/ Jardín A 278", "lat": "26° 48' 54,216\" S", "long": "59° 6' 50,724\" W" }, "geometry": { "type": "Point", "coordinates": [ -59.11409, -26.81506 ] } },
{ "type": "Feature", "properties": { "municipio": "La Eduvigis", "localidad": "La Eduvigis", "nombre_o_i": "EGB A 278 (Campo Antonioli)", "lat": "26° 47' 45,600\" S", "long": "59° 1' 22,008\" W" }, "geometry": { "type": "Point", "coordinates": [ -59.02278, -26.796 ] } },
{ "type": "Feature", "properties": { "municipio": "La Eduvigis", "localidad": "Selvas del Río de Oro", "nombre_o_i": "EGB 51 Tte.Ibañez\/ Biblioteca Escolar", "lat": "26° 48' 15,624\" S", "long": "58° 57' 25,596\" W" }, "geometry": { "type": "Point", "coordinates": [ -58.95711, -26.80434 ] } },
{ "type": "Feature", "properties": { "municipio": "La Eduvigis", "localidad": "La Eduvigis", "nombre_o_i": "Puesto Sanitario", "lat": "26° 43' 20,496\" S", "long": "58° 54' 29,592\" W" }, "geometry": { "type": "Point", "coordinates": [ -58.90822, -26.72236 ] } },
{ "type": "Feature", "properties": { "municipio": "La Escondida", "localidad": "La Escondida", "nombre_o_i": "Anexo E.E.G.B.n° 621", "lat": "27° 2' 55,428\" S", "long": "59° 26' 14,748\" W" }, "geometry": { "type": "Point", "coordinates": [ -59.43743, -27.04873 ] } },
{ "type": "Feature", "properties": { "municipio": "La Tigra", "localidad": "La Tigra", "nombre_o_i": "Jardín A 104", "lat": "26° 59' 47,472\" S", "long": "60° 34' 28,236\" W" }, "geometry": { "type": "Point", "coordinates": [ -60.57451, -26.99652 ] } },
{ "type": "Feature", "properties": { "municipio": "La Tigra", "localidad": "La Tigra", "nombre_o_i": "EGB 134 \/ EPA", "lat": "27° 5' 11,400\" S", "long": "60° 37' 24,744\" W" }, "geometry": { "type": "Point", "coordinates": [ -60.62354, -27.0865 ] } },
{ "type": "Feature", "properties": { "municipio": "La Tigra", "localidad": "La Tigra", "nombre_o_i": "Esc 770", "lat": "27° 3' 43,164\" S", "long": "60° 44' 14,136\" W" }, "geometry": { "type": "Point", "coordinates": [ -60.73726, -27.06199 ] } },
{ "type": "Feature", "properties": { "municipio": "La Tigra", "localidad": "La Tigra", "nombre_o_i": "Esc 840", "lat": "27° 3' 0,756\" S", "long": "60° 32' 7,980\" W" }, "geometry": { "type": "Point", "coordinates": [ -60.53555, -27.05021 ] } },
{ "type": "Feature", "properties": { "municipio": "La Tigra", "localidad": "La Tigra", "nombre_o_i": "Jardín 104 - Sgo.Allende", "lat": "27° 5' 42,360\" S", "long": "60° 30' 52,524\" W" }, "geometry": { "type": "Point", "coordinates": [ -60.51459, -27.0951 ] } },
{ "type": "Feature", "properties": { "municipio": "La Tigra", "localidad": "La Tigra", "nombre_o_i": "EGB 413", "lat": "27° 7' 22,008\" S", "long": "60° 33' 18,180\" W" }, "geometry": { "type": "Point", "coordinates": [ -60.55505, -27.12278 ] } },
{ "type": "Feature", "properties": { "municipio": "La Tigra", "localidad": "La Tigra", "nombre_o_i": "EGB 533 Simón Pablo Harnaga \/ Jardín A 533", "lat": "27° 9' 30,384\" S", "long": "60° 30' 55,836\" W" }, "geometry": { "type": "Point", "coordinates": [ -60.51551, -27.15844 ] } },
{ "type": "Feature", "properties": { "municipio": "La Verde", "localidad": "La Verde", "nombre_o_i": "Nivel b", "lat": "27° 4' 50,664\" S", "long": "59° 23' 8,556\" W" }, "geometry": { "type": "Point", "coordinates": [ -59.38571, -27.08074 ] } },
{ "type": "Feature", "properties": { "municipio": "Libertad", "localidad": "Laguna Blanca", "nombre_o_i": "EEGB Nº9 (Anexo EEGB Nª86)", "lat": "27° 16' 10,524\" S", "long": "59° 12' 40,392\" W" }, "geometry": { "type": "Point", "coordinates": [ -59.21122, -27.26959 ] } },
{ "type": "Feature", "properties": { "municipio": "Libertad", "localidad": "Laguna Blanca", "nombre_o_i": "Puesto Sanitario \"B\" Colonia Svriz", "lat": "27° 12' 36,432\" S", "long": "59° 13' 42,240\" W" }, "geometry": { "type": "Point", "coordinates": [ -59.2284, -27.21012 ] } },
{ "type": "Feature", "properties": { "municipio": "Laguna Limpia", "localidad": "Laguna Limpia", "nombre_o_i": "EGB", "lat": "26° 27' 10,080\" S", "long": "59° 34' 43,608\" W" }, "geometry": { "type": "Point", "coordinates": [ -59.57878, -26.4528 ] } },
{ "type": "Feature", "properties": { "municipio": "Laguna Limpia", "localidad": "Laguna Limpia", "nombre_o_i": "Escuela", "lat": "26° 25' 13,692\" S", "long": "59° 40' 43,860\" W" }, "geometry": { "type": "Point", "coordinates": [ -59.67885, -26.42047 ] } },
{ "type": "Feature", "properties": { "municipio": "Laguna Limpia", "localidad": "Laguna Limpia", "nombre_o_i": "EGB", "lat": "26° 21' 9,648\" S", "long": "59° 45' 14,184\" W" }, "geometry": { "type": "Point", "coordinates": [ -59.75394, -26.35268 ] } },
{ "type": "Feature", "properties": { "municipio": "Laguna Limpia", "localidad": "Laguna Limpia", "nombre_o_i": "EGB", "lat": "26° 20' 54,708\" S", "long": "59° 37' 6,708\" W" }, "geometry": { "type": "Point", "coordinates": [ -59.61853, -26.34853 ] } },
{ "type": "Feature", "properties": { "municipio": "Laguna Limpia", "localidad": "Laguna Limpia", "nombre_o_i": "EEP Nº 672", "lat": "26° 30' 40,176\" S", "long": "59° 36' 33,984\" W" }, "geometry": { "type": "Point", "coordinates": [ -59.60944, -26.51116 ] } },
{ "type": "Feature", "properties": { "municipio": "Las Breñas", "localidad": "Pampa Castro", "nombre_o_i": "E.E.P nº 172", "lat": "27° 7' 31,008\" S", "long": "61° 1' 30,936\" W" }, "geometry": { "type": "Point", "coordinates": [ -61.02526, -27.12528 ] } },
{ "type": "Feature", "properties": { "municipio": "Las Breñas", "localidad": "Curva Novoa", "nombre_o_i": "E.E.P nº 519 Esteban Gascon", "lat": "27° 10' 14,160\" S", "long": "60° 57' 44,064\" W" }, "geometry": { "type": "Point", "coordinates": [ -60.96224, -27.1706 ] } },
{ "type": "Feature", "properties": { "municipio": "Las Breñas", "localidad": "Cuero Quemado", "nombre_o_i": "E.E.P nº 146", "lat": "27° 12' 37,620\" S", "long": "60° 58' 13,296\" W" }, "geometry": { "type": "Point", "coordinates": [ -60.97036, -27.21045 ] } },
{ "type": "Feature", "properties": { "municipio": "Las Breñas", "localidad": "India Muerta", "nombre_o_i": "E.E.P nº 190", "lat": "27° 15' 57,636\" S", "long": "60° 57' 19,980\" W" }, "geometry": { "type": "Point", "coordinates": [ -60.95555, -27.26601 ] } },
{ "type": "Feature", "properties": { "municipio": "Las Breñas", "localidad": "Cnia. Juan Lavalle", "nombre_o_i": "E.E.P nº406", "lat": "27° 18' 58,140\" S", "long": "60° 52' 54,984\" W" }, "geometry": { "type": "Point", "coordinates": [ -60.88194, -27.31615 ] } },
{ "type": "Feature", "properties": { "municipio": "Las Breñas", "localidad": "Cnia. Juan Lavalle", "nombre_o_i": "E.E.Pnº 326 Gobernador Deolindo Bittel", "lat": "27° 14' 18,240\" S", "long": "60° 53' 45,240\" W" }, "geometry": { "type": "Point", "coordinates": [ -60.8959, -27.2384 ] } },
{ "type": "Feature", "properties": { "municipio": "Las Breñas", "localidad": "Cnia. Juan Lavalle", "nombre_o_i": "E.E.Pnº 302 9 de Julio", "lat": "27° 12' 6,768\" S", "long": "60° 54' 1,332\" W" }, "geometry": { "type": "Point", "coordinates": [ -60.90037, -27.20188 ] } },
{ "type": "Feature", "properties": { "municipio": "Las Breñas", "localidad": "El Triangulo", "nombre_o_i": "E.E.Pnº 568", "lat": "27° 9' 57,204\" S", "long": "60° 52' 9,084\" W" }, "geometry": { "type": "Point", "coordinates": [ -60.86919, -27.16589 ] } },
{ "type": "Feature", "properties": { "municipio": "Las Breñas", "localidad": "La Esterlina", "nombre_o_i": "E.E.P nº 121", "lat": "27° 8' 34,944\" S", "long": "60° 54' 7,524\" W" }, "geometry": { "type": "Point", "coordinates": [ -60.90209, -27.14304 ] } },
{ "type": "Feature", "properties": { "municipio": "Las Breñas", "localidad": "Pampa Canton", "nombre_o_i": "E.E.Pnº 213", "lat": "27° 3' 36,828\" S", "long": "61° 0' 26,280\" W" }, "geometry": { "type": "Point", "coordinates": [ -61.0073, -27.06023 ] } },
{ "type": "Feature", "properties": { "municipio": "Las Breñas", "localidad": "Pozo del Indio", "nombre_o_i": "Nivel B", "lat": "27° 3' 49,464\" S", "long": "60° 57' 7,488\" W" }, "geometry": { "type": "Point", "coordinates": [ -60.95208, -27.06374 ] } },
{ "type": "Feature", "properties": { "municipio": "Las Breñas", "localidad": "Pozo del Indio", "nombre_o_i": "E.E.P nº 334 Malvinas Argentinas", "lat": "27° 0' 45,900\" S", "long": "61° 0' 59,400\" W" }, "geometry": { "type": "Point", "coordinates": [ -61.0165, -27.01275 ] } },
{ "type": "Feature", "properties": { "municipio": "Las Breñas", "localidad": "Las Breñas", "nombre_o_i": "E.E.P nº 311", "lat": "27° 1' 32,916\" S", "long": "61° 4' 27,408\" W" }, "geometry": { "type": "Point", "coordinates": [ -61.07428, -27.02581 ] } },
{ "type": "Feature", "properties": { "municipio": "Las Breñas", "localidad": "Pampa Carnevale", "nombre_o_i": "E.E.P nº 347 Ildefonso Ayasco", "lat": "27° 4' 50,736\" S", "long": "61° 7' 40,116\" W" }, "geometry": { "type": "Point", "coordinates": [ -61.12781, -27.08076 ] } },
{ "type": "Feature", "properties": { "municipio": "Las Breñas", "localidad": "Santa Justina", "nombre_o_i": "E.E.P nº 112", "lat": "27° 6' 24,264\" S", "long": "61° 11' 19,068\" W" }, "geometry": { "type": "Point", "coordinates": [ -61.18863, -27.10674 ] } },
{ "type": "Feature", "properties": { "municipio": "Las Breñas", "localidad": "Santa Justina", "nombre_o_i": "E.E.P nº 112 Anexo", "lat": "27° 3' 44,208\" S", "long": "61° 11' 13,524\" W" }, "geometry": { "type": "Point", "coordinates": [ -61.18709, -27.06228 ] } },
{ "type": "Feature", "properties": { "municipio": "Las Breñas", "localidad": "San Martin", "nombre_o_i": "E.E.P nº 60 Gral San Martin", "lat": "27° 1' 27,264\" S", "long": "61° 8' 34,584\" W" }, "geometry": { "type": "Point", "coordinates": [ -61.14294, -27.02424 ] } },
{ "type": "Feature", "properties": { "municipio": "Las Breñas", "localidad": "2 de Mayo", "nombre_o_i": "E.E.P nº 763", "lat": "27° 1' 0,228\" S", "long": "61° 11' 13,956\" W" }, "geometry": { "type": "Point", "coordinates": [ -61.18721, -27.01673 ] } },
{ "type": "Feature", "properties": { "municipio": "Las Breñas", "localidad": "Santa Elena", "nombre_o_i": "E.E.P nº 124", "lat": "27° 1' 18,948\" S", "long": "61° 13' 47,928\" W" }, "geometry": { "type": "Point", "coordinates": [ -61.22998, -27.02193 ] } },
{ "type": "Feature", "properties": { "municipio": "Las Breñas", "localidad": "Pampa Mitre", "nombre_o_i": "E.E.P nº 251", "lat": "26° 57' 43,596\" S", "long": "61° 10' 0,300\" W" }, "geometry": { "type": "Point", "coordinates": [ -61.16675, -26.96211 ] } },
{ "type": "Feature", "properties": { "municipio": "Las Breñas", "localidad": "Pampa Brugnoli", "nombre_o_i": "E.E.P nº 440", "lat": "26° 58' 21,252\" S", "long": "61° 15' 8,460\" W" }, "geometry": { "type": "Point", "coordinates": [ -61.25235, -26.97257 ] } },
{ "type": "Feature", "properties": { "municipio": "Las Breñas", "localidad": "Santa Elena", "nombre_o_i": "E.E.P nº 124 Anexo", "lat": "27° 2' 26,052\" S", "long": "61° 17' 4,020\" W" }, "geometry": { "type": "Point", "coordinates": [ -61.28445, -27.04057 ] } },
{ "type": "Feature", "properties": { "municipio": "Las Breñas", "localidad": "El Puca", "nombre_o_i": "E.E.P nº 106", "lat": "27° 0' 0,864\" S", "long": "61° 18' 38,160\" W" }, "geometry": { "type": "Point", "coordinates": [ -61.3106, -27.00024 ] } },
{ "type": "Feature", "properties": { "municipio": "Las Breñas", "localidad": "Pampa Suarez", "nombre_o_i": "E.E.P º n 449", "lat": "26° 54' 43,308\" S", "long": "61° 10' 24,204\" W" }, "geometry": { "type": "Point", "coordinates": [ -61.17339, -26.91203 ] } },
{ "type": "Feature", "properties": { "municipio": "Las Breñas", "localidad": "Los Cerritos", "nombre_o_i": "Nivel B", "lat": "26° 55' 7,464\" S", "long": "61° 13' 50,520\" W" }, "geometry": { "type": "Point", "coordinates": [ -61.2307, -26.91874 ] } },
{ "type": "Feature", "properties": { "municipio": "Las Breñas", "localidad": "Pampa Zanatta", "nombre_o_i": "E.E.P nº 276", "lat": "26° 55' 31,368\" S", "long": "61° 17' 13,992\" W" }, "geometry": { "type": "Point", "coordinates": [ -61.28722, -26.92538 ] } },
{ "type": "Feature", "properties": { "municipio": "Las Breñas", "localidad": "Pampa Ipora Guazu", "nombre_o_i": "E.E.P nº 130", "lat": "26° 53' 13,344\" S", "long": "61° 21' 27,936\" W" }, "geometry": { "type": "Point", "coordinates": [ -61.35776, -26.88704 ] } },
{ "type": "Feature", "properties": { "municipio": "Las Breñas", "localidad": "Pampa Ipora Guazu", "nombre_o_i": "Nivel B", "lat": "26° 52' 59,448\" S", "long": "61° 22' 48,432\" W" }, "geometry": { "type": "Point", "coordinates": [ -61.38012, -26.88318 ] } },
{ "type": "Feature", "properties": { "municipio": "Las Breñas", "localidad": "Pampa Leguizamon", "nombre_o_i": "E.E.P nº 489", "lat": "26° 51' 44,676\" S", "long": "61° 15' 34,056\" W" }, "geometry": { "type": "Point", "coordinates": [ -61.25946, -26.86241 ] } },
{ "type": "Feature", "properties": { "municipio": "Las Breñas", "localidad": "Pampa Sandi", "nombre_o_i": "E.E.P nº 630", "lat": "26° 56' 56,652\" S", "long": "61° 23' 7,764\" W" }, "geometry": { "type": "Point", "coordinates": [ -61.38549, -26.94907 ] } },
{ "type": "Feature", "properties": { "municipio": "Las Breñas", "localidad": "Pampa del Zorro", "nombre_o_i": "E.E.P nº 286", "lat": "26° 54' 10,008\" S", "long": "61° 27' 11,592\" W" }, "geometry": { "type": "Point", "coordinates": [ -61.45322, -26.90278 ] } },
{ "type": "Feature", "properties": { "municipio": "Las Breñas", "localidad": "Pamapa Gomez", "nombre_o_i": "E.E.P nº 1028", "lat": "26° 51' 12,240\" S", "long": "61° 30' 29,520\" W" }, "geometry": { "type": "Point", "coordinates": [ -61.5082, -26.8534 ] } },
{ "type": "Feature", "properties": { "municipio": "Las Breñas", "localidad": "El Recoveco", "nombre_o_i": "Nivel B", "lat": "26° 50' 25,224\" S", "long": "61° 25' 12,324\" W" }, "geometry": { "type": "Point", "coordinates": [ -61.42009, -26.84034 ] } },
{ "type": "Feature", "properties": { "municipio": "Las Breñas", "localidad": "El Arenal", "nombre_o_i": "E.E.P nº 581 Anexo", "lat": "26° 47' 36,924\" S", "long": "61° 26' 39,336\" W" }, "geometry": { "type": "Point", "coordinates": [ -61.44426, -26.79359 ] } },
{ "type": "Feature", "properties": { "municipio": "Las Breñas", "localidad": "Las Piedritas", "nombre_o_i": "Nivel B", "lat": "26° 49' 24,780\" S", "long": "61° 33' 58,860\" W" }, "geometry": { "type": "Point", "coordinates": [ -61.56635, -26.82355 ] } },
{ "type": "Feature", "properties": { "municipio": "Las Breñas", "localidad": "El Estero", "nombre_o_i": "E.E.P nº 653 Santiago del Estero", "lat": "26° 44' 24,144\" S", "long": "61° 33' 45,288\" W" }, "geometry": { "type": "Point", "coordinates": [ -61.56258, -26.74004 ] } },
{ "type": "Feature", "properties": { "municipio": "Las Breñas", "localidad": "El Estero", "nombre_o_i": "Nivel B", "lat": "26° 42' 54,504\" S", "long": "61° 35' 42,180\" W" }, "geometry": { "type": "Point", "coordinates": [ -61.59505, -26.71514 ] } },
{ "type": "Feature", "properties": { "municipio": "Las Breñas", "localidad": "San Antonio", "nombre_o_i": "E.E.P nº 690 Benito Antonio M. Leon Anexo", "lat": "26° 40' 23,232\" S", "long": "61° 35' 7,728\" W" }, "geometry": { "type": "Point", "coordinates": [ -61.58548, -26.67312 ] } },
{ "type": "Feature", "properties": { "municipio": "Las Breñas", "localidad": "Los Arenales", "nombre_o_i": "E.E.P nº 952", "lat": "26° 42' 14,148\" S", "long": "61° 27' 27,504\" W" }, "geometry": { "type": "Point", "coordinates": [ -61.45764, -26.70393 ] } },
{ "type": "Feature", "properties": { "municipio": "Las Breñas", "localidad": "Pampa Hermosa", "nombre_o_i": "Nivel B", "lat": "26° 44' 4,704\" S", "long": "61° 21' 43,884\" W" }, "geometry": { "type": "Point", "coordinates": [ -61.36219, -26.73464 ] } },
{ "type": "Feature", "properties": { "municipio": "Las Garcitas", "localidad": "Las Garcitas", "nombre_o_i": "Puesto Sanitario", "lat": "26° 39' 53,280\" S", "long": "59° 43' 24,132\" W" }, "geometry": { "type": "Point", "coordinates": [ -59.72337, -26.6648 ] } },
{ "type": "Feature", "properties": { "municipio": "Las Garcitas", "localidad": "Las Garcitas", "nombre_o_i": "EEP", "lat": "26° 35' 58,704\" S", "long": "59° 44' 54,060\" W" }, "geometry": { "type": "Point", "coordinates": [ -59.74835, -26.59964 ] } },
{ "type": "Feature", "properties": { "municipio": "Las Garcitas", "localidad": "Las Garcitas", "nombre_o_i": "EEP", "lat": "26° 34' 37,452\" S", "long": "59° 46' 44,544\" W" }, "geometry": { "type": "Point", "coordinates": [ -59.77904, -26.57707 ] } },
{ "type": "Feature", "properties": { "municipio": "Las Garcitas", "localidad": "Las Garcitas", "nombre_o_i": "EEP", "lat": "26° 32' 57,624\" S", "long": "59° 49' 18,516\" W" }, "geometry": { "type": "Point", "coordinates": [ -59.82181, -26.54934 ] } },
{ "type": "Feature", "properties": { "municipio": "Las Garcitas", "localidad": "Las Garcitas", "nombre_o_i": "EEP", "lat": "26° 39' 35,244\" S", "long": "59° 48' 15,876\" W" }, "geometry": { "type": "Point", "coordinates": [ -59.80441, -26.65979 ] } },
{ "type": "Feature", "properties": { "municipio": "Las Garcitas", "localidad": "Las Garcitas", "nombre_o_i": "Puesto Sanitario", "lat": "26° 41' 34,188\" S", "long": "59° 50' 44,448\" W" }, "geometry": { "type": "Point", "coordinates": [ -59.84568, -26.69283 ] } },
{ "type": "Feature", "properties": { "municipio": "Las Garcitas", "localidad": "Las Garcitas", "nombre_o_i": "EEP", "lat": "26° 41' 52,836\" S", "long": "59° 47' 2,616\" W" }, "geometry": { "type": "Point", "coordinates": [ -59.78406, -26.69801 ] } },
{ "type": "Feature", "properties": { "municipio": "La Leonesa", "localidad": "La Leonesa", "nombre_o_i": "EEGB N°55 Rincón del Zorro", "lat": "27° 3' 4,519\" S", "long": "58° 50' 56,515\" W" }, "geometry": { "type": "Point", "coordinates": [ -58.849032, -27.051255 ] } },
{ "type": "Feature", "properties": { "municipio": "La Leonesa", "localidad": "La Leonesa", "nombre_o_i": "EES N°98 Laguna Pato", "lat": "27° 4' 21,135\" S", "long": "58° 51' 10,975\" W" }, "geometry": { "type": "Point", "coordinates": [ -58.853049, -27.072537 ] } },
{ "type": "Feature", "properties": { "municipio": "La Leonesa", "localidad": "La Leonesa", "nombre_o_i": "EEGB N°150", "lat": "27° 8' 1,697\" S", "long": "58° 47' 6,877\" W" }, "geometry": { "type": "Point", "coordinates": [ -58.785244, -27.133805 ] } },
{ "type": "Feature", "properties": { "municipio": "La Leonesa", "localidad": "La Leonesa", "nombre_o_i": "UEP N°68", "lat": "27° 4' 39,055\" S", "long": "58° 43' 50,788\" W" }, "geometry": { "type": "Point", "coordinates": [ -58.730774, -27.077515 ] } },
{ "type": "Feature", "properties": { "municipio": "La Leonesa", "localidad": "La Leonesa", "nombre_o_i": "EGB N°241 Rep.de México", "lat": "26° 56' 44,641\" S", "long": "58° 42' 43,227\" W" }, "geometry": { "type": "Point", "coordinates": [ -58.712007, -26.945734 ] } },
{ "type": "Feature", "properties": { "municipio": "La Leonesa", "localidad": "La Leonesa", "nombre_o_i": "EGB Anexo 2 San Carlos", "lat": "26° 55' 47,898\" S", "long": "58° 46' 18,430\" W" }, "geometry": { "type": "Point", "coordinates": [ -58.771786, -26.929972 ] } },
{ "type": "Feature", "properties": { "municipio": "La Leonesa", "localidad": "La Leonesa", "nombre_o_i": "EGB N°97 Cabral Cue", "lat": "26° 54' 51,310\" S", "long": "58° 47' 24,481\" W" }, "geometry": { "type": "Point", "coordinates": [ -58.790134, -26.914253 ] } },
{ "type": "Feature", "properties": { "municipio": "La Leonesa", "localidad": "La Leonesa", "nombre_o_i": "EGB N°157 Pje.Quía", "lat": "26° 57' 20,311\" S", "long": "58° 55' 33,022\" W" }, "geometry": { "type": "Point", "coordinates": [ -58.92584, -26.955642 ] } },
{ "type": "Feature", "properties": { "municipio": "La Leonesa", "localidad": "La Leonesa", "nombre_o_i": "EGB N°35 Lapacho", "lat": "26° 59' 19,129\" S", "long": "58° 52' 18,805\" W" }, "geometry": { "type": "Point", "coordinates": [ -58.87189, -26.988647 ] } },
{ "type": "Feature", "properties": { "municipio": "Las Palmas", "localidad": "Las Palmas", "nombre_o_i": "Esc.Paraje Mongay", "lat": "27° 2' 11,292\" S", "long": "58° 38' 42,612\" W" }, "geometry": { "type": "Point", "coordinates": [ -58.64517, -27.03647 ] } },
{ "type": "Feature", "properties": { "municipio": "Las Palmas", "localidad": "Las Palmas", "nombre_o_i": "EEGB N°655 Lucio C.Morales", "lat": "27° 1' 32,700\" S", "long": "58° 40' 3,648\" W" }, "geometry": { "type": "Point", "coordinates": [ -58.66768, -27.02575 ] } },
{ "type": "Feature", "properties": { "municipio": "Las Palmas", "localidad": "Las Palmas", "nombre_o_i": "EEP N°566 D.F.Sarmiento", "lat": "27° 7' 8,832\" S", "long": "58° 38' 52,080\" W" }, "geometry": { "type": "Point", "coordinates": [ -58.6478, -27.11912 ] } },
{ "type": "Feature", "properties": { "municipio": "Las Palmas", "localidad": "Las Palmas", "nombre_o_i": "Esc.Nac.N°514", "lat": "27° 10' 14,340\" S", "long": "58° 44' 21,912\" W" }, "geometry": { "type": "Point", "coordinates": [ -58.73942, -27.17065 ] } },
{ "type": "Feature", "properties": { "municipio": "Las Palmas", "localidad": "Las Palmas", "nombre_o_i": "Escuela", "lat": "27° 13' 26,940\" S", "long": "58° 44' 53,520\" W" }, "geometry": { "type": "Point", "coordinates": [ -58.7482, -27.22415 ] } },
{ "type": "Feature", "properties": { "municipio": "Las Palmas", "localidad": "Las Palmas", "nombre_o_i": "Esc.N°390 Pje.Limita", "lat": "27° 13' 54,768\" S", "long": "58° 45' 4,608\" W" }, "geometry": { "type": "Point", "coordinates": [ -58.75128, -27.23188 ] } },
{ "type": "Feature", "properties": { "municipio": "Los Frentones", "localidad": "Los Frentones", "nombre_o_i": "EGB N°983", "lat": "26° 11' 36,348\" S", "long": "61° 26' 6,864\" W" }, "geometry": { "type": "Point", "coordinates": [ -61.43524, -26.19343 ] } },
{ "type": "Feature", "properties": { "municipio": "Los Frentones", "localidad": "Los Frentones", "nombre_o_i": "EGB N°921 - Pje.Kolvas", "lat": "25° 35' 20,328\" S", "long": "61° 26' 53,448\" W" }, "geometry": { "type": "Point", "coordinates": [ -61.44818, -25.58898 ] } },
{ "type": "Feature", "properties": { "municipio": "Miraflores", "localidad": "Miraflores", "nombre_o_i": "Anexo EGB N°943 - Torres del Mirador", "lat": "25° 33' 50,184\" S", "long": "61° 17' 38,256\" W" },