{
"type": "FeatureCollection",
"name": "biocida_ley_7203",
"crs": { "type": "name", "properties": { "name": "urn:ogc:def:crs:OGC:1.3:CRS84" } },
"features": [
{ "type": "Feature", "properties": { "municipio": "Avia Terai", "localidad": "Avia Terai", "nombre_o_i": "EGB Nª182 - Escuela y Pozo", "lat": "26° 37' 3,756\" S", "long": "60° 40' 31,836\" W" }, "geometry": { "type": "Point", "coordinates": [ -60.67551, -26.61771 ] } },
{ "type": "Feature", "properties": { "municipio": "Avia Terai", "localidad": "Avia Terai", "nombre_o_i": "Esc. Nª739", "lat": "26° 31' 45,768\" S", "long": "60° 38' 25,404\" W" }, "geometry": { "type": "Point", "coordinates": [ -60.64039, -26.52938 ] } },
{ "type": "Feature", "properties": { "municipio": "Avia Terai", "localidad": "Avia Terai", "nombre_o_i": "Pueso Sanitario", "lat": "26° 31' 25,392\" S", "long": "60° 34' 28,668\" W" }, "geometry": { "type": "Point", "coordinates": [ -60.57463, -26.52372 ] } },
{ "type": "Feature", "properties": { "municipio": "El Sauzalito", "localidad": "Bajo Verde", "nombre_o_i": "E.E.P Anexo 852", "lat": "24° 18' 58,068\" S", "long": "61° 52' 21,072\" W" }, "geometry": { "type": "Point", "coordinates": [ -61.87252, -24.31613 ] } },
{ "type": "Feature", "properties": { "municipio": "El Sauzalito", "localidad": "La Invernada", "nombre_o_i": "E.E.P Nº 851 La Invernada", "lat": "24° 20' 50,928\" S", "long": "61° 48' 10,224\" W" }, "geometry": { "type": "Point", "coordinates": [ -61.80284, -24.34748 ] } },
{ "type": "Feature", "properties": { "municipio": "El Sauzalito", "localidad": "Pozo del Gallo", "nombre_o_i": "E.E.P Nº 987", "lat": "24° 20' 43,296\" S", "long": "62° 15' 48,708\" W" }, "geometry": { "type": "Point", "coordinates": [ -62.26353, -24.34536 ] } }
]
}
