{
"type": "FeatureCollection",
"crs": { "type": "name", "properties": { "name": "urn:ogc:def:crs:OGC:1.3:CRS84" } }, "features": [
{ "type": "Feature", "properties": { "nombre": "AICUÑA", "estilo_id": 18, "link": "46028010", "varones": 108, "mujeres": 111, "personas": 219 }, "geometry": { "type": "Point", "coordinates": [ -67.77, -29.48 ] } },
{ "type": "Feature", "properties": { "nombre": "BAÑADO DE LOS PANTANOS", "estilo_id": 18, "link": "46007030", "varones": 268, "mujeres": 266, "personas": 534 }, "geometry": { "type": "Point", "coordinates": [ -66.84, -28.39 ] } },
{ "type": "Feature", "properties": { "nombre": "CHAÑAR", "estilo_id": 18, "link": "46063020", "varones": 456, "mujeres": 447, "personas": 903 }, "geometry": { "type": "Point", "coordinates": [ -65.97, -30.56 ] } },
{ "type": "Feature", "properties": { "nombre": "CHAÑAR LADEADO", "estilo_id": 18, "link": "82014070", "varones": 2597, "mujeres": 2818, "personas": 5415 }, "geometry": { "type": "Point", "coordinates": [ -62.04, -33.33 ] } },
{ "type": "Feature", "properties": { "nombre": "CHAÑAR MUYO", "estilo_id": 18, "link": "46049060", "varones": 126, "mujeres": 142, "personas": 268 }, "geometry": { "type": "Point", "coordinates": [ -67.59, -28.61 ] } },
{ "type": "Feature", "properties": { "nombre": "BARRIO MOÑO AZUL", "estilo_id": 18, "link": "62042265", "varones": 20, "mujeres": 19, "personas": 39 }, "geometry": { "type": "Point", "coordinates": [ -66.89, -39.13 ] } },
{ "type": "Feature", "properties": { "nombre": "CAÑADA DEL UCLE", "estilo_id": 18, "link": "82042040", "varones": 351, "mujeres": 347, "personas": 698 }, "geometry": { "type": "Point", "coordinates": [ -61.61, -33.41 ] } },
{ "type": "Feature", "properties": { "nombre": "CAÑADA HONDA", "estilo_id": 18, "link": "70105010", "varones": 155, "mujeres": 154, "personas": 309 }, "geometry": { "type": "Point", "coordinates": [ -68.55, -31.98 ] } },
{ "type": "Feature", "properties": { "nombre": "CAÑADA OMBU", "estilo_id": 18, "link": "82133020", "varones": 256, "mujeres": 262, "personas": 518 }, "geometry": { "type": "Point", "coordinates": [ -59.98, -28.31 ] } },
{ "type": "Feature", "properties": { "nombre": "CAÑADA RICA", "estilo_id": 18, "link": "82028050", "varones": 312, "mujeres": 329, "personas": 641 }, "geometry": { "type": "Point", "coordinates": [ -60.61, -33.52 ] } },
{ "type": "Feature", "properties": { "nombre": "CAÑADA ROSQUIN", "estilo_id": 18, "link": "82126010", "varones": 2458, "mujeres": 2550, "personas": 5008 }, "geometry": { "type": "Point", "coordinates": [ -61.6, -32.06 ] } },
{ "type": "Feature", "properties": { "nombre": "CAÑADON CHILENO", "estilo_id": 18, "link": "62070005", "varones": 17, "mujeres": 27, "personas": 44 }, "geometry": { "type": "Point", "coordinates": [ -70.02, -40.88 ] } },
{ "type": "Feature", "properties": { "nombre": "CARCARAÑA", "estilo_id": 18, "link": "82119030", "varones": 7977, "mujeres": 8300, "personas": 16277 }, "geometry": { "type": "Point", "coordinates": [ -61.15, -32.86 ] } },
{ "type": "Feature", "properties": { "nombre": "COLONIA CAMPO VILLAFAÑE", "estilo_id": 18, "link": "34056010", "varones": 2140, "mujeres": 2354, "personas": 4494 }, "geometry": { "type": "Point", "coordinates": [ -59.08, -26.2 ] } },
{ "type": "Feature", "properties": { "nombre": "COLONIA PEÑA", "estilo_id": 18, "link": "30028050", "varones": 26, "mujeres": 32, "personas": 58 }, "geometry": { "type": "Point", "coordinates": [ -58.18, -30.8 ] } },
{ "type": "Feature", "properties": { "nombre": "EL CHAÑAR", "estilo_id": 18, "link": "90007020", "varones": 1153, "mujeres": 1242, "personas": 2395 }, "geometry": { "type": "Point", "coordinates": [ -65.07, -26.76 ] } },
{ "type": "Feature", "properties": { "nombre": "LOGROÑO", "estilo_id": 18, "link": "82077040", "varones": 297, "mujeres": 333, "personas": 630 }, "geometry": { "type": "Point", "coordinates": [ -61.7, -29.5 ] } },
{ "type": "Feature", "properties": { "nombre": "PARADA ACUÑA", "estilo_id": 18, "link": "18112060", "varones": 79, "mujeres": 80, "personas": 159 }, "geometry": { "type": "Point", "coordinates": [ -57.96, -29.91 ] } },
{ "type": "Feature", "properties": { "nombre": "PIÑALITO SUR", "estilo_id": 18, "link": "54112030", "varones": 57, "mujeres": 50, "personas": 107 }, "geometry": { "type": "Point", "coordinates": [ -53.84, -26.42 ] } },
{ "type": "Feature", "properties": { "nombre": "PIÑERO", "estilo_id": 18, "link": "82084220", "varones": 817, "mujeres": 329, "personas": 1146 }, "geometry": { "type": "Point", "coordinates": [ -60.8, -33.11 ] } },
{ "type": "Feature", "properties": { "nombre": "PUEBLO MUÑOZ", "estilo_id": 18, "link": "82084240", "varones": 244, "mujeres": 253, "personas": 497 }, "geometry": { "type": "Point", "coordinates": [ -60.9, -33.17 ] } },
{ "type": "Feature", "properties": { "nombre": "SAÑOGASTA", "estilo_id": 18, "link": "46042120", "varones": 899, "mujeres": 906, "personas": 1805 }, "geometry": { "type": "Point", "coordinates": [ -67.63, -29.32 ] } },
{ "type": "Feature", "properties": { "nombre": "VILLA CAÑAS", "estilo_id": 18, "link": "82042300", "varones": 4302, "mujeres": 4519, "personas": 8821 }, "geometry": { "type": "Point", "coordinates": [ -61.61, -34.01 ] } },
{ "type": "Feature", "properties": { "nombre": "ESTANCIA GRANDE", "estilo_id": 18, "link": "74021025", "varones": 29, "mujeres": 24, "personas": 53 }, "geometry": { "type": "Point", "coordinates": [ -66.15, -33.19 ] } },
{ "type": "Feature", "properties": { "nombre": "ALDEA SAN JUAN", "estilo_id": 18, "link": "30084015", "varones": 31, "mujeres": 35, "personas": 66 }, "geometry": { "type": "Point", "coordinates": [ -60.36, -32.0 ] } },
{ "type": "Feature", "properties": { "nombre": "ÑANDUCITA", "estilo_id": 18, "link": "82091200", "varones": 38, "mujeres": 41, "personas": 79 }, "geometry": { "type": "Point", "coordinates": [ -61.13, -30.37 ] } },
{ "type": "Feature", "properties": { "nombre": "ÑIRIHUAU", "estilo_id": 18, "link": "62070040", "varones": 140, "mujeres": 121, "personas": 261 }, "geometry": { "type": "Point", "coordinates": [ -71.14, -41.09 ] } },
{ "type": "Feature", "properties": { "nombre": "11 DE OCTUBRE", "estilo_id": 18, "link": "58035080", "varones": 124, "mujeres": 112, "personas": 236 }, "geometry": { "type": "Point", "coordinates": [ -68.1, -38.88 ] } },
{ "type": "Feature", "properties": { "nombre": "12 DE OCTUBRE", "estilo_id": 18, "link": "06588030", "varones": 102, "mujeres": 117, "personas": 219 }, "geometry": { "type": "Point", "coordinates": [ -60.92, -35.61 ] } },
{ "type": "Feature", "properties": { "nombre": "16 DE JULIO", "estilo_id": 18, "link": "06049050", "varones": 63, "mujeres": 48, "personas": 111 }, "geometry": { "type": "Point", "coordinates": [ -60.16, -37.2 ] } },
{ "type": "Feature", "properties": { "nombre": "17 DE AGOSTO", "estilo_id": 18, "link": "06651040", "varones": 152, "mujeres": 167, "personas": 319 }, "geometry": { "type": "Point", "coordinates": [ -62.94, -37.91 ] } },
{ "type": "Feature", "properties": { "nombre": "1 DE MAYO", "estilo_id": 18, "link": "30098090", "varones": 352, "mujeres": 344, "personas": 696 }, "geometry": { "type": "Point", "coordinates": [ -58.42, -32.26 ] } },
{ "type": "Feature", "properties": { "nombre": "1 DE MAYO", "estilo_id": 18, "link": "54014060", "varones": 195, "mujeres": 208, "personas": 403 }, "geometry": { "type": "Point", "coordinates": [ -55.03, -27.17 ] } },
{ "type": "Feature", "properties": { "nombre": "25 DE MAYO", "estilo_id": 18, "link": "50105220", "varones": 707, "mujeres": 743, "personas": 1450 }, "geometry": { "type": "Point", "coordinates": [ -68.55, -34.59 ] } },
{ "type": "Feature", "properties": { "nombre": "25 DE MAYO", "estilo_id": 18, "link": "54119060", "varones": 1856, "mujeres": 1982, "personas": 3838 }, "geometry": { "type": "Point", "coordinates": [ -54.75, -27.37 ] } },
{ "type": "Feature", "properties": { "nombre": "28 DE JULIO", "estilo_id": 18, "link": "26042040", "varones": 126, "mujeres": 111, "personas": 237 }, "geometry": { "type": "Point", "coordinates": [ -65.84, -43.38 ] } },
{ "type": "Feature", "properties": { "nombre": "28 DE NOVIEMBRE", "estilo_id": 18, "link": "78021060", "varones": 3153, "mujeres": 2992, "personas": 6145 }, "geometry": { "type": "Point", "coordinates": [ -72.21, -51.58 ] } },
{ "type": "Feature", "properties": { "nombre": "30 DE AGOSTO", "estilo_id": 18, "link": "06826040", "varones": 2350, "mujeres": 2427, "personas": 4777 }, "geometry": { "type": "Point", "coordinates": [ -62.55, -36.28 ] } },
{ "type": "Feature", "properties": { "nombre": "3 DE MAYO", "estilo_id": 18, "link": "50056150", "varones": 268, "mujeres": 248, "personas": 516 }, "geometry": { "type": "Point", "coordinates": [ -68.65, -32.68 ] } },
{ "type": "Feature", "properties": { "nombre": "7 DE ABRIL", "estilo_id": 18, "link": "90007080", "varones": 244, "mujeres": 248, "personas": 492 }, "geometry": { "type": "Point", "coordinates": [ -64.5, -26.29 ] } },
{ "type": "Feature", "properties": { "nombre": "9 DE JULIO", "estilo_id": 18, "link": "18161030", "varones": 1031, "mujeres": 1178, "personas": 2209 }, "geometry": { "type": "Point", "coordinates": [ -58.83, -28.84 ] } },
{ "type": "Feature", "properties": { "nombre": "9 DE JULIO KM 20", "estilo_id": 18, "link": "54042050", "varones": 757, "mujeres": 771, "personas": 1528 }, "geometry": { "type": "Point", "coordinates": [ -54.5, -26.41 ] } },
{ "type": "Feature", "properties": { "nombre": "9 DE JULIO KM 28", "estilo_id": 18, "link": "54042040", "varones": 175, "mujeres": 164, "personas": 339 }, "geometry": { "type": "Point", "coordinates": [ -54.47, -26.43 ] } },
{ "type": "Feature", "properties": { "nombre": "AARON CASTELLANOS", "estilo_id": 18, "link": "82042010", "varones": 115, "mujeres": 121, "personas": 236 }, "geometry": { "type": "Point", "coordinates": [ -62.38, -34.34 ] } },
{ "type": "Feature", "properties": { "nombre": "ABBOTT", "estilo_id": 18, "link": "06547010", "varones": 297, "mujeres": 306, "personas": 603 }, "geometry": { "type": "Point", "coordinates": [ -58.8, -35.28 ] } },
{ "type": "Feature", "properties": { "nombre": "ABDON CASTRO TOLAY", "estilo_id": 18, "link": "38007010", "varones": 126, "mujeres": 153, "personas": 279 }, "geometry": { "type": "Point", "coordinates": [ -66.09, -23.34 ] } },
{ "type": "Feature", "properties": { "nombre": "ABRA GRANDE", "estilo_id": 18, "link": "86035010", "varones": 66, "mujeres": 72, "personas": 138 }, "geometry": { "type": "Point", "coordinates": [ -64.38, -27.29 ] } },
{ "type": "Feature", "properties": { "nombre": "ABRA LAITE", "estilo_id": 18, "link": "38007030", "varones": 27, "mujeres": 29, "personas": 56 }, "geometry": { "type": "Point", "coordinates": [ -65.78, -23.15 ] } },
{ "type": "Feature", "properties": { "nombre": "ABRAMO", "estilo_id": 18, "link": "42077010", "varones": 163, "mujeres": 149, "personas": 312 }, "geometry": { "type": "Point", "coordinates": [ -63.85, -37.89 ] } },
{ "type": "Feature", "properties": { "nombre": "ACEBAL", "estilo_id": 18, "link": "82084010", "varones": 2403, "mujeres": 2566, "personas": 4969 }, "geometry": { "type": "Point", "coordinates": [ -60.84, -33.24 ] } },
{ "type": "Feature", "properties": { "nombre": "ACEVEDO", "estilo_id": 18, "link": "06623010", "varones": 708, "mujeres": 791, "personas": 1499 }, "geometry": { "type": "Point", "coordinates": [ -60.44, -33.76 ] } },
{ "type": "Feature", "properties": { "nombre": "ACHERAL", "estilo_id": 18, "link": "90070010", "varones": 1325, "mujeres": 1358, "personas": 2683 }, "geometry": { "type": "Point", "coordinates": [ -65.47, -27.12 ] } },
{ "type": "Feature", "properties": { "nombre": "ACHIRAS", "estilo_id": 18, "link": "14098010", "varones": 1093, "mujeres": 1194, "personas": 2287 }, "geometry": { "type": "Point", "coordinates": [ -64.99, -33.18 ] } },
{ "type": "Feature", "properties": { "nombre": "ACOYTE", "estilo_id": 18, "link": "66161010", "varones": 34, "mujeres": 26, "personas": 60 }, "geometry": { "type": "Point", "coordinates": [ -65.0, -22.26 ] } },
{ "type": "Feature", "properties": { "nombre": "ADELIA MARIA", "estilo_id": 18, "link": "14098020", "varones": 3730, "mujeres": 3856, "personas": 7586 }, "geometry": { "type": "Point", "coordinates": [ -64.02, -33.63 ] } },
{ "type": "Feature", "properties": { "nombre": "ADOLFO E CARRANZA", "estilo_id": 18, "link": "10042010", "varones": 19, "mujeres": 13, "personas": 32 }, "geometry": { "type": "Point", "coordinates": [ -65.97, -29.03 ] } },
{ "type": "Feature", "properties": { "nombre": "ADOLFO VAN PRAET", "estilo_id": 18, "link": "42133010", "varones": 145, "mujeres": 134, "personas": 279 }, "geometry": { "type": "Point", "coordinates": [ -64.03, -35.02 ] } },
{ "type": "Feature", "properties": { "nombre": "AEROLITO", "estilo_id": 18, "link": "86119010", "varones": 131, "mujeres": 118, "personas": 249 }, "geometry": { "type": "Point", "coordinates": [ -62.38, -27.24 ] } },
{ "type": "Feature", "properties": { "nombre": "AGRELO", "estilo_id": 18, "link": "50063010", "varones": 1060, "mujeres": 1087, "personas": 2147 }, "geometry": { "type": "Point", "coordinates": [ -68.9, -33.12 ] } },
{ "type": "Feature", "properties": { "nombre": "AGUADA CECILIO", "estilo_id": 18, "link": "62084010", "varones": 82, "mujeres": 73, "personas": 155 }, "geometry": { "type": "Point", "coordinates": [ -65.84, -40.85 ] } },
{ "type": "Feature", "properties": { "nombre": "BARRIO SAN JORGE", "estilo_id": 18, "link": "90007010", "varones": 200, "mujeres": 194, "personas": 394 }, "geometry": { "type": "Point", "coordinates": [ -65.05, -26.68 ] } },
{ "type": "Feature", "properties": { "nombre": "BARRIO SAN JOSE III", "estilo_id": 18, "link": "90119010", "varones": 827, "mujeres": 876, "personas": 1703 }, "geometry": { "type": "Point", "coordinates": [ -65.27, -26.8 ] } },
{ "type": "Feature", "properties": { "nombre": "BARRIO SAN ROQUE", "estilo_id": 18, "link": "90021040", "varones": 287, "mujeres": 306, "personas": 593 }, "geometry": { "type": "Point", "coordinates": [ -65.58, -27.33 ] } },
{ "type": "Feature", "properties": { "nombre": "BARRIO SANTA ISABEL", "estilo_id": 18, "link": "14091010", "varones": 37, "mujeres": 33, "personas": 70 }, "geometry": { "type": "Point", "coordinates": [ -64.54, -30.84 ] } },
{ "type": "Feature", "properties": { "nombre": "BARRIO SANTA LUCIA", "estilo_id": 18, "link": "62042335", "varones": 78, "mujeres": 85, "personas": 163 }, "geometry": { "type": "Point", "coordinates": [ -67.3, -39.03 ] } },
{ "type": "Feature", "properties": { "nombre": "BARRIO SANTA PAULA", "estilo_id": 18, "link": "06357060", "varones": 336, "mujeres": 308, "personas": 644 }, "geometry": { "type": "Point", "coordinates": [ -57.68, -37.93 ] } },
{ "type": "Feature", "properties": { "nombre": "BARRIO SANTA RITA", "estilo_id": 18, "link": "62042340", "varones": 130, "mujeres": 128, "personas": 258 }, "geometry": { "type": "Point", "coordinates": [ -67.1, -39.13 ] } },
{ "type": "Feature", "properties": { "nombre": "BARRIO SANTA ROSA", "estilo_id": 18, "link": "06525010", "varones": 57, "mujeres": 52, "personas": 109 }, "geometry": { "type": "Point", "coordinates": [ -58.78, -34.95 ] } },
{ "type": "Feature", "properties": { "nombre": "BARRIO SANTA TERESITA", "estilo_id": 18, "link": "66042007", "varones": 353, "mujeres": 368, "personas": 721 }, "geometry": { "type": "Point", "coordinates": [ -65.57, -25.04 ] } },
{ "type": "Feature", "properties": { "nombre": "BARRIO TUNGOIL", "estilo_id": 18, "link": "54098005", "varones": 102, "mujeres": 97, "personas": 199 }, "geometry": { "type": "Point", "coordinates": [ -55.39, -27.11 ] } },
{ "type": "Feature", "properties": { "nombre": "BARRIO UNION", "estilo_id": 18, "link": "62042350", "varones": 57, "mujeres": 49, "personas": 106 }, "geometry": { "type": "Point", "coordinates": [ -67.94, -38.98 ] } },
{ "type": "Feature", "properties": { "nombre": "BARRIO UNION", "estilo_id": 18, "link": "62014010", "varones": 46, "mujeres": 43, "personas": 89 }, "geometry": { "type": "Point", "coordinates": [ -66.19, -39.16 ] } },
{ "type": "Feature", "properties": { "nombre": "BARRIO U.T.A. II", "estilo_id": 18, "link": "90105050", "varones": 725, "mujeres": 730, "personas": 1455 }, "geometry": { "type": "Point", "coordinates": [ -65.24, -26.76 ] } },
{ "type": "Feature", "properties": { "nombre": "BARRIO VIRGEN DEL ROSARIO", "estilo_id": 18, "link": "50056075", "varones": 99, "mujeres": 112, "personas": 211 }, "geometry": { "type": "Point", "coordinates": [ -68.31, -32.7 ] } },
{ "type": "Feature", "properties": { "nombre": "BARTOLOME DE LAS CASAS", "estilo_id": 18, "link": "34035010", "varones": 597, "mujeres": 537, "personas": 1134 }, "geometry": { "type": "Point", "coordinates": [ -59.62, -25.35 ] } },
{ "type": "Feature", "properties": { "nombre": "BASAIL", "estilo_id": 18, "link": "22140020", "varones": 942, "mujeres": 987, "personas": 1929 }, "geometry": { "type": "Point", "coordinates": [ -59.28, -27.89 ] } },
{ "type": "Feature", "properties": { "nombre": "BASAVILBASO", "estilo_id": 18, "link": "30098010", "varones": 4552, "mujeres": 4933, "personas": 9485 }, "geometry": { "type": "Point", "coordinates": [ -58.88, -32.37 ] } },
{ "type": "Feature", "properties": { "nombre": "BATAN", "estilo_id": 18, "link": "06357070", "varones": 5041, "mujeres": 5111, "personas": 10152 }, "geometry": { "type": "Point", "coordinates": [ -57.71, -38.01 ] } },
{ "type": "Feature", "properties": { "nombre": "BATAVIA", "estilo_id": 18, "link": "74042040", "varones": 177, "mujeres": 172, "personas": 349 }, "geometry": { "type": "Point", "coordinates": [ -65.69, -34.78 ] } },
{ "type": "Feature", "properties": { "nombre": "BAUER Y SIGEL", "estilo_id": 18, "link": "82021060", "varones": 153, "mujeres": 137, "personas": 290 }, "geometry": { "type": "Point", "coordinates": [ -61.95, -31.27 ] } },
{ "type": "Feature", "properties": { "nombre": "BAYAUCA", "estilo_id": 18, "link": "06469020", "varones": 275, "mujeres": 266, "personas": 541 }, "geometry": { "type": "Point", "coordinates": [ -61.29, -34.87 ] } },
{ "type": "Feature", "properties": { "nombre": "BEAZLEY", "estilo_id": 18, "link": "74056040", "varones": 480, "mujeres": 477, "personas": 957 }, "geometry": { "type": "Point", "coordinates": [ -66.65, -33.76 ] } },
{ "type": "Feature", "properties": { "nombre": "BELLA ITALIA", "estilo_id": 18, "link": "82021070", "varones": 559, "mujeres": 511, "personas": 1070 }, "geometry": { "type": "Point", "coordinates": [ -61.41, -31.28 ] } },
{ "type": "Feature", "properties": { "nombre": "BELLA VISTA", "estilo_id": 18, "link": "70049020", "varones": 148, "mujeres": 177, "personas": 325 }, "geometry": { "type": "Point", "coordinates": [ -69.25, -30.44 ] } },
{ "type": "Feature", "properties": { "nombre": "BELLOCQ", "estilo_id": 18, "link": "06147010", "varones": 274, "mujeres": 268, "personas": 542 }, "geometry": { "type": "Point", "coordinates": [ -61.53, -35.92 ] } },
{ "type": "Feature", "properties": { "nombre": "AGUADA DE GUERRA", "estilo_id": 18, "link": "62091010", "varones": 69, "mujeres": 57, "personas": 126 }, "geometry": { "type": "Point", "coordinates": [ -68.38, -41.06 ] } },
{ "type": "Feature", "properties": { "nombre": "AGUADA GUZMAN", "estilo_id": 18, "link": "62035010", "varones": 59, "mujeres": 51, "personas": 110 }, "geometry": { "type": "Point", "coordinates": [ -68.87, -39.98 ] } },
{ "type": "Feature", "properties": { "nombre": "AGUADA SAN ROQUE", "estilo_id": 18, "link": "58014005", "varones": 71, "mujeres": 64, "personas": 135 }, "geometry": { "type": "Point", "coordinates": [ -68.92, -38.0 ] } },
{ "type": "Feature", "properties": { "nombre": "AGUA DE CASTILLA", "estilo_id": 18, "link": "38007035", "varones": 48, "mujeres": 48, "personas": 96 }, "geometry": { "type": "Point", "coordinates": [ -65.81, -23.22 ] } },
{ "type": "Feature", "properties": { "nombre": "AGUA DE ORO", "estilo_id": 18, "link": "14021010", "varones": 972, "mujeres": 946, "personas": 1918 }, "geometry": { "type": "Point", "coordinates": [ -64.3, -31.06 ] } },
{ "type": "Feature", "properties": { "nombre": "AGUA ESCONDIDA", "estilo_id": 18, "link": "50077010", "varones": 236, "mujeres": 207, "personas": 443 }, "geometry": { "type": "Point", "coordinates": [ -68.31, -36.15 ] } },
{ "type": "Feature", "properties": { "nombre": "AGUARA GRANDE", "estilo_id": 18, "link": "82091010", "varones": 53, "mujeres": 43, "personas": 96 }, "geometry": { "type": "Point", "coordinates": [ -60.94, -30.11 ] } },
{ "type": "Feature", "properties": { "nombre": "AGUARAY", "estilo_id": 18, "link": "66056010", "varones": 5178, "mujeres": 5232, "personas": 10410 }, "geometry": { "type": "Point", "coordinates": [ -63.73, -22.24 ] } },
{ "type": "Feature", "properties": { "nombre": "AGUAS BLANCAS", "estilo_id": 18, "link": "66126010", "varones": 1293, "mujeres": 1102, "personas": 2395 }, "geometry": { "type": "Point", "coordinates": [ -64.35, -22.72 ] } },
{ "type": "Feature", "properties": { "nombre": "AGUAS CALIENTES", "estilo_id": 18, "link": "38014010", "varones": 1297, "mujeres": 1266, "personas": 2563 }, "geometry": { "type": "Point", "coordinates": [ -64.92, -24.59 ] } },
{ "type": "Feature", "properties": { "nombre": "AGUSTINA", "estilo_id": 18, "link": "06413020", "varones": 70, "mujeres": 85, "personas": 155 }, "geometry": { "type": "Point", "coordinates": [ -61.07, -34.46 ] } },
{ "type": "Feature", "properties": { "nombre": "AGUSTIN MOSCONI", "estilo_id": 18, "link": "06854010", "varones": 136, "mujeres": 144, "personas": 280 }, "geometry": { "type": "Point", "coordinates": [ -60.56, -35.74 ] } },
{ "type": "Feature", "properties": { "nombre": "AGUSTIN ROCA", "estilo_id": 18, "link": "06413010", "varones": 171, "mujeres": 160, "personas": 331 }, "geometry": { "type": "Point", "coordinates": [ -60.87, -34.51 ] } },
{ "type": "Feature", "properties": { "nombre": "AGUSTONI", "estilo_id": 18, "link": "42105010", "varones": 151, "mujeres": 133, "personas": 284 }, "geometry": { "type": "Point", "coordinates": [ -63.39, -35.78 ] } },
{ "type": "Feature", "properties": { "nombre": "ALBARELLOS", "estilo_id": 18, "link": "82084020", "varones": 121, "mujeres": 132, "personas": 253 }, "geometry": { "type": "Point", "coordinates": [ -60.64, -33.24 ] } },
{ "type": "Feature", "properties": { "nombre": "ALBERDI VIEJO", "estilo_id": 18, "link": "06462010", "varones": 173, "mujeres": 145, "personas": 318 }, "geometry": { "type": "Point", "coordinates": [ -61.84, -34.44 ] } },
{ "type": "Feature", "properties": { "nombre": "ALCARAZ", "estilo_id": 18, "link": "30070005", "varones": 1225, "mujeres": 1185, "personas": 2410 }, "geometry": { "type": "Point", "coordinates": [ -59.6, -31.46 ] } },
{ "type": "Feature", "properties": { "nombre": "ALCIRA", "estilo_id": 18, "link": "14098030", "varones": 2801, "mujeres": 3118, "personas": 5919 }, "geometry": { "type": "Point", "coordinates": [ -64.34, -32.76 ] } },
{ "type": "Feature", "properties": { "nombre": "ALCORTA", "estilo_id": 18, "link": "82028010", "varones": 3568, "mujeres": 3882, "personas": 7450 }, "geometry": { "type": "Point", "coordinates": [ -61.13, -33.54 ] } },
{ "type": "Feature", "properties": { "nombre": "ALDAO", "estilo_id": 18, "link": "82021010", "varones": 814, "mujeres": 762, "personas": 1576 }, "geometry": { "type": "Point", "coordinates": [ -61.74, -30.98 ] } },
{ "type": "Feature", "properties": { "nombre": "ALDAO", "estilo_id": 18, "link": "82119010", "varones": 304, "mujeres": 283, "personas": 587 }, "geometry": { "type": "Point", "coordinates": [ -60.82, -32.71 ] } },
{ "type": "Feature", "properties": { "nombre": "ALDEA APELEG", "estilo_id": 18, "link": "26084010", "varones": 62, "mujeres": 64, "personas": 126 }, "geometry": { "type": "Point", "coordinates": [ -70.85, -44.7 ] } },
{ "type": "Feature", "properties": { "nombre": "ALDEA ASUNCION", "estilo_id": 18, "link": "30049010", "varones": 144, "mujeres": 119, "personas": 263 }, "geometry": { "type": "Point", "coordinates": [ -59.23, -32.83 ] } },
{ "type": "Feature", "properties": { "nombre": "ALDEA BELEIRO", "estilo_id": 18, "link": "26084020", "varones": 94, "mujeres": 82, "personas": 176 }, "geometry": { "type": "Point", "coordinates": [ -71.52, -45.56 ] } },
{ "type": "Feature", "properties": { "nombre": "ALDEA BRASILERA", "estilo_id": 18, "link": "30021010", "varones": 446, "mujeres": 449, "personas": 895 }, "geometry": { "type": "Point", "coordinates": [ -60.59, -31.89 ] } },
{ "type": "Feature", "properties": { "nombre": "ALDEA EPULEF", "estilo_id": 18, "link": "26056010", "varones": 145, "mujeres": 102, "personas": 247 }, "geometry": { "type": "Point", "coordinates": [ -69.71, -43.23 ] } },
{ "type": "Feature", "properties": { "nombre": "ALDEA ESCOLAR", "estilo_id": 18, "link": "26035010", "varones": 169, "mujeres": 190, "personas": 359 }, "geometry": { "type": "Point", "coordinates": [ -71.56, -43.12 ] } },
{ "type": "Feature", "properties": { "nombre": "ALDEA GRAPSCHENTAL", "estilo_id": 18, "link": "30021015", "varones": 16, "mujeres": 9, "personas": 25 }, "geometry": { "type": "Point", "coordinates": [ -60.5, -31.96 ] } },
{ "type": "Feature", "properties": { "nombre": "ALDEA MARIA LUISA", "estilo_id": 18, "link": "30084010", "varones": 391, "mujeres": 382, "personas": 773 }, "geometry": { "type": "Point", "coordinates": [ -60.41, -31.89 ] } },
{ "type": "Feature", "properties": { "nombre": "ALDEA PROTESTANTE", "estilo_id": 18, "link": "30021020", "varones": 248, "mujeres": 271, "personas": 519 }, "geometry": { "type": "Point", "coordinates": [ -60.56, -32.03 ] } },
{ "type": "Feature", "properties": { "nombre": "ASTICA", "estilo_id": 18, "link": "70119010", "varones": 381, "mujeres": 359, "personas": 740 }, "geometry": { "type": "Point", "coordinates": [ -67.3, -30.95 ] } },
{ "type": "Feature", "properties": { "nombre": "ASTRA", "estilo_id": 18, "link": "26021010", "varones": 182, "mujeres": 159, "personas": 341 }, "geometry": { "type": "Point", "coordinates": [ -67.48, -45.74 ] } },
{ "type": "Feature", "properties": { "nombre": "ATAHONA", "estilo_id": 18, "link": "90091010", "varones": 189, "mujeres": 210, "personas": 399 }, "geometry": { "type": "Point", "coordinates": [ -65.29, -27.42 ] } },
{ "type": "Feature", "properties": { "nombre": "ATAHONA", "estilo_id": 18, "link": "14105010", "varones": 48, "mujeres": 40, "personas": 88 }, "geometry": { "type": "Point", "coordinates": [ -63.71, -30.9 ] } },
{ "type": "Feature", "properties": { "nombre": "ATALAYA", "estilo_id": 18, "link": "06505010", "varones": 350, "mujeres": 370, "personas": 720 }, "geometry": { "type": "Point", "coordinates": [ -57.53, -35.02 ] } },
{ "type": "Feature", "properties": { "nombre": "ATALIVA", "estilo_id": 18, "link": "82021030", "varones": 841, "mujeres": 839, "personas": 1680 }, "geometry": { "type": "Point", "coordinates": [ -61.43, -31.0 ] } },
{ "type": "Feature", "properties": { "nombre": "ATALIVA ROCA", "estilo_id": 18, "link": "42154010", "varones": 330, "mujeres": 377, "personas": 707 }, "geometry": { "type": "Point", "coordinates": [ -64.29, -37.03 ] } },
{ "type": "Feature", "properties": { "nombre": "ATOCHA", "estilo_id": 18, "link": "66028010", "varones": 357, "mujeres": 373, "personas": 730 }, "geometry": { "type": "Point", "coordinates": [ -65.48, -24.82 ] } },
{ "type": "Feature", "properties": { "nombre": "AURELIA", "estilo_id": 18, "link": "82021040", "varones": 57, "mujeres": 56, "personas": 113 }, "geometry": { "type": "Point", "coordinates": [ -61.42, -31.42 ] } },
{ "type": "Feature", "properties": { "nombre": "AUSONIA", "estilo_id": 18, "link": "14042030", "varones": 537, "mujeres": 509, "personas": 1046 }, "geometry": { "type": "Point", "coordinates": [ -63.24, -32.66 ] } },
{ "type": "Feature", "properties": { "nombre": "AVELLANEDA", "estilo_id": 18, "link": "14049010", "varones": 130, "mujeres": 152, "personas": 282 }, "geometry": { "type": "Point", "coordinates": [ -64.21, -30.59 ] } },
{ "type": "Feature", "properties": { "nombre": "AVELLANEDA", "estilo_id": 18, "link": "82049020", "varones": 11517, "mujeres": 11824, "personas": 23341 }, "geometry": { "type": "Point", "coordinates": [ -59.66, -29.12 ] } },
{ "type": "Feature", "properties": { "nombre": "AVERIAS", "estilo_id": 18, "link": "86077020", "varones": 209, "mujeres": 162, "personas": 371 }, "geometry": { "type": "Point", "coordinates": [ -62.38, -28.74 ] } },
{ "type": "Feature", "properties": { "nombre": "AVIA TERAI", "estilo_id": 18, "link": "22070010", "varones": 2985, "mujeres": 3218, "personas": 6203 }, "geometry": { "type": "Point", "coordinates": [ -60.73, -26.69 ] } },
{ "type": "Feature", "properties": { "nombre": "AZARA", "estilo_id": 18, "link": "54007020", "varones": 1597, "mujeres": 1568, "personas": 3165 }, "geometry": { "type": "Point", "coordinates": [ -55.68, -28.06 ] } },
{ "type": "Feature", "properties": { "nombre": "AZCUENAGA", "estilo_id": 18, "link": "06728010", "varones": 156, "mujeres": 156, "personas": 312 }, "geometry": { "type": "Point", "coordinates": [ -59.37, -34.36 ] } },
{ "type": "Feature", "properties": { "nombre": "AZOPARDO", "estilo_id": 18, "link": "06651010", "varones": 48, "mujeres": 47, "personas": 95 }, "geometry": { "type": "Point", "coordinates": [ -62.9, -37.7 ] } },
{ "type": "Feature", "properties": { "nombre": "BAGUAL", "estilo_id": 18, "link": "74042030", "varones": 111, "mujeres": 119, "personas": 230 }, "geometry": { "type": "Point", "coordinates": [ -65.57, -35.15 ] } },
{ "type": "Feature", "properties": { "nombre": "BAHIA BUSTAMANTE", "estilo_id": 18, "link": "26021020", "varones": 16, "mujeres": 9, "personas": 25 }, "geometry": { "type": "Point", "coordinates": [ -66.53, -45.11 ] } },
{ "type": "Feature", "properties": { "nombre": "BAHIA CREEK", "estilo_id": 18, "link": "62007010", "varones": 4, "mujeres": 1, "personas": 5 }, "geometry": { "type": "Point", "coordinates": [ -63.91, -41.09 ] } },
{ "type": "Feature", "properties": { "nombre": "BAHIA SAN BLAS", "estilo_id": 18, "link": "06602010", "varones": 329, "mujeres": 282, "personas": 611 }, "geometry": { "type": "Point", "coordinates": [ -62.24, -40.56 ] } },
{ "type": "Feature", "properties": { "nombre": "BAIGORRITA", "estilo_id": 18, "link": "06385010", "varones": 927, "mujeres": 921, "personas": 1848 }, "geometry": { "type": "Point", "coordinates": [ -60.99, -34.75 ] } },
{ "type": "Feature", "properties": { "nombre": "BAJADA DEL AGRIO", "estilo_id": 18, "link": "58105010", "varones": 378, "mujeres": 414, "personas": 792 }, "geometry": { "type": "Point", "coordinates": [ -70.03, -38.41 ] } },
{ "type": "Feature", "properties": { "nombre": "BAJO CARACOLES", "estilo_id": 18, "link": "78049010", "varones": 19, "mujeres": 14, "personas": 33 }, "geometry": { "type": "Point", "coordinates": [ -70.93, -47.45 ] } },
{ "type": "Feature", "properties": { "nombre": "BAJO CARRIZAL", "estilo_id": 18, "link": "46049040", "varones": 77, "mujeres": 73, "personas": 150 }, "geometry": { "type": "Point", "coordinates": [ -67.57, -28.89 ] } },
{ "type": "Feature", "properties": { "nombre": "CERRO DE ORO", "estilo_id": 18, "link": "74049020", "varones": 275, "mujeres": 285, "personas": 560 }, "geometry": { "type": "Point", "coordinates": [ -64.99, -32.38 ] } },
{ "type": "Feature", "properties": { "nombre": "CERRO NEGRO", "estilo_id": 18, "link": "10105040", "varones": 14, "mujeres": 10, "personas": 24 }, "geometry": { "type": "Point", "coordinates": [ -67.14, -28.24 ] } },
{ "type": "Feature", "properties": { "nombre": "CERRO POLICIA", "estilo_id": 18, "link": "62035020", "varones": 116, "mujeres": 136, "personas": 252 }, "geometry": { "type": "Point", "coordinates": [ -68.49, -39.73 ] } },
{ "type": "Feature", "properties": { "nombre": "CERVANTES", "estilo_id": 18, "link": "62042370", "varones": 1573, "mujeres": 1679, "personas": 3252 }, "geometry": { "type": "Point", "coordinates": [ -67.39, -39.05 ] } },
{ "type": "Feature", "properties": { "nombre": "CHABAS", "estilo_id": 18, "link": "82014060", "varones": 3345, "mujeres": 3526, "personas": 6871 }, "geometry": { "type": "Point", "coordinates": [ -61.36, -33.25 ] } },
{ "type": "Feature", "properties": { "nombre": "CHACHARRAMENDI", "estilo_id": 18, "link": "42154020", "varones": 125, "mujeres": 101, "personas": 226 }, "geometry": { "type": "Point", "coordinates": [ -65.65, -37.33 ] } },
{ "type": "Feature", "properties": { "nombre": "CHACRAS DEL RIO LUJAN", "estilo_id": 18, "link": "06126035", "varones": 823, "mujeres": 798, "personas": 1621 }, "geometry": { "type": "Point", "coordinates": [ -58.92, -34.29 ] } },
{ "type": "Feature", "properties": { "nombre": "CHAJAN", "estilo_id": 18, "link": "14098070", "varones": 390, "mujeres": 377, "personas": 767 }, "geometry": { "type": "Point", "coordinates": [ -65.0, -33.56 ] } },
{ "type": "Feature", "properties": { "nombre": "CHAJARI", "estilo_id": 18, "link": "30028010", "varones": 16098, "mujeres": 16636, "personas": 32734 }, "geometry": { "type": "Point", "coordinates": [ -57.98, -30.75 ] } },
{ "type": "Feature", "properties": { "nombre": "CHALACEA", "estilo_id": 18, "link": "14105040", "varones": 88, "mujeres": 91, "personas": 179 }, "geometry": { "type": "Point", "coordinates": [ -63.57, -30.75 ] } },
{ "type": "Feature", "properties": { "nombre": "CHALICAN", "estilo_id": 18, "link": "38035050", "varones": 538, "mujeres": 524, "personas": 1062 }, "geometry": { "type": "Point", "coordinates": [ -64.8, -24.07 ] } },
{ "type": "Feature", "properties": { "nombre": "CHAÑAR PUNCO", "estilo_id": 18, "link": "10091030", "varones": 881, "mujeres": 855, "personas": 1736 }, "geometry": { "type": "Point", "coordinates": [ -66.04, -26.73 ] } },
{ "type": "Feature", "properties": { "nombre": "CHANCANI", "estilo_id": 18, "link": "14077010", "varones": 210, "mujeres": 212, "personas": 422 }, "geometry": { "type": "Point", "coordinates": [ -65.44, -31.42 ] } },
{ "type": "Feature", "properties": { "nombre": "CHAÑAR POZO DE ABAJO", "estilo_id": 18, "link": "86147010", "varones": 32, "mujeres": 30, "personas": 62 }, "geometry": { "type": "Point", "coordinates": [ -64.63, -27.6 ] } },
{ "type": "Feature", "properties": { "nombre": "CHAÑAR VIEJO", "estilo_id": 18, "link": "14112020", "varones": 75, "mujeres": 75, "personas": 150 }, "geometry": { "type": "Point", "coordinates": [ -63.85, -30.01 ] } },
{ "type": "Feature", "properties": { "nombre": "CHAPADMALAL", "estilo_id": 18, "link": "06357080", "varones": 2182, "mujeres": 1930, "personas": 4112 }, "geometry": { "type": "Point", "coordinates": [ -57.65, -38.18 ] } },
{ "type": "Feature", "properties": { "nombre": "CHAPANAY", "estilo_id": 18, "link": "50098060", "varones": 757, "mujeres": 729, "personas": 1486 }, "geometry": { "type": "Point", "coordinates": [ -68.48, -32.98 ] } },
{ "type": "Feature", "properties": { "nombre": "CHAPUY", "estilo_id": 18, "link": "82042070", "varones": 279, "mujeres": 292, "personas": 571 }, "geometry": { "type": "Point", "coordinates": [ -61.74, -33.8 ] } },
{ "type": "Feature", "properties": { "nombre": "CHAQUIAGO", "estilo_id": 18, "link": "10021030", "varones": 544, "mujeres": 552, "personas": 1096 }, "geometry": { "type": "Point", "coordinates": [ -66.33, -27.54 ] } },
{ "type": "Feature", "properties": { "nombre": "CHARBONIER", "estilo_id": 18, "link": "14091060", "varones": 118, "mujeres": 117, "personas": 235 }, "geometry": { "type": "Point", "coordinates": [ -64.54, -30.77 ] } },
{ "type": "Feature", "properties": { "nombre": "CHARRAS", "estilo_id": 18, "link": "14056050", "varones": 544, "mujeres": 544, "personas": 1088 }, "geometry": { "type": "Point", "coordinates": [ -64.05, -33.02 ] } },
{ "type": "Feature", "properties": { "nombre": "CHASICO", "estilo_id": 18, "link": "06819010", "varones": 100, "mujeres": 103, "personas": 203 }, "geometry": { "type": "Point", "coordinates": [ -62.64, -38.34 ] } },
{ "type": "Feature", "properties": { "nombre": "CHAUCHILLAS", "estilo_id": 18, "link": "86147020", "varones": 72, "mujeres": 74, "personas": 146 }, "geometry": { "type": "Point", "coordinates": [ -64.5, -27.56 ] } },
{ "type": "Feature", "properties": { "nombre": "CHAUPI POZO", "estilo_id": 18, "link": "86035050", "varones": 175, "mujeres": 207, "personas": 382 }, "geometry": { "type": "Point", "coordinates": [ -64.4, -27.53 ] } },
{ "type": "Feature", "properties": { "nombre": "CHAVARRIA", "estilo_id": 18, "link": "18161010", "varones": 1227, "mujeres": 1279, "personas": 2506 }, "geometry": { "type": "Point", "coordinates": [ -58.57, -28.95 ] } },
{ "type": "Feature", "properties": { "nombre": "CHAZON", "estilo_id": 18, "link": "14042040", "varones": 536, "mujeres": 525, "personas": 1061 }, "geometry": { "type": "Point", "coordinates": [ -63.27, -33.08 ] } },
{ "type": "Feature", "properties": { "nombre": "CHELFORO", "estilo_id": 18, "link": "62014020", "varones": 43, "mujeres": 28, "personas": 71 }, "geometry": { "type": "Point", "coordinates": [ -66.52, -39.09 ] } },
{ "type": "Feature", "properties": { "nombre": "CHICHINALES", "estilo_id": 18, "link": "62042380", "varones": 1505, "mujeres": 1552, "personas": 3057 }, "geometry": { "type": "Point", "coordinates": [ -66.94, -39.12 ] } },
{ "type": "Feature", "properties": { "nombre": "CHILCA JULIANA", "estilo_id": 18, "link": "86168010", "varones": 256, "mujeres": 283, "personas": 539 }, "geometry": { "type": "Point", "coordinates": [ -63.49, -28.81 ] } },
{ "type": "Feature", "properties": { "nombre": "CHILECITO", "estilo_id": 18, "link": "50091020", "varones": 511, "mujeres": 522, "personas": 1033 }, "geometry": { "type": "Point", "coordinates": [ -69.08, -33.89 ] } },
{ "type": "Feature", "properties": { "nombre": "CHILIBROSTE", "estilo_id": 18, "link": "14182090", "varones": 293, "mujeres": 283, "personas": 576 }, "geometry": { "type": "Point", "coordinates": [ -62.51, -32.33 ] } },
{ "type": "Feature", "properties": { "nombre": "CHILLAR", "estilo_id": 18, "link": "06049040", "varones": 1478, "mujeres": 1605, "personas": 3083 }, "geometry": { "type": "Point", "coordinates": [ -59.98, -37.31 ] } },
{ "type": "Feature", "properties": { "nombre": "CHIMPAY", "estilo_id": 18, "link": "62014030", "varones": 2100, "mujeres": 1925, "personas": 4025 }, "geometry": { "type": "Point", "coordinates": [ -66.14, -39.16 ] } },
{ "type": "Feature", "properties": { "nombre": "CHIVILCOY", "estilo_id": 18, "link": "50098070", "varones": 292, "mujeres": 258, "personas": 550 }, "geometry": { "type": "Point", "coordinates": [ -68.46, -33.04 ] } },
{ "type": "Feature", "properties": { "nombre": "CHOLILA", "estilo_id": 18, "link": "26014020", "varones": 822, "mujeres": 836, "personas": 1658 }, "geometry": { "type": "Point", "coordinates": [ -71.44, -42.51 ] } },
{ "type": "Feature", "properties": { "nombre": "CHOROMORO", "estilo_id": 18, "link": "90112010", "varones": 226, "mujeres": 245, "personas": 471 }, "geometry": { "type": "Point", "coordinates": [ -65.32, -26.41 ] } },
{ "type": "Feature", "properties": { "nombre": "CHOROTIS", "estilo_id": 18, "link": "22043010", "varones": 521, "mujeres": 420, "personas": 941 }, "geometry": { "type": "Point", "coordinates": [ -61.4, -27.92 ] } },
{ "type": "Feature", "properties": { "nombre": "CHORRIACA", "estilo_id": 18, "link": "58063010", "varones": 183, "mujeres": 220, "personas": 403 }, "geometry": { "type": "Point", "coordinates": [ -70.06, -37.93 ] } },
{ "type": "Feature", "properties": { "nombre": "CHOSMES", "estilo_id": 18, "link": "74056060", "varones": 26, "mujeres": 21, "personas": 47 }, "geometry": { "type": "Point", "coordinates": [ -66.75, -33.4 ] } },
{ "type": "Feature", "properties": { "nombre": "CHOVET", "estilo_id": 18, "link": "82042080", "varones": 1000, "mujeres": 1101, "personas": 2101 }, "geometry": { "type": "Point", "coordinates": [ -61.6, -33.6 ] } },
{ "type": "Feature", "properties": { "nombre": "BAJO HONDO", "estilo_id": 18, "link": "06182010", "varones": 90, "mujeres": 74, "personas": 164 }, "geometry": { "type": "Point", "coordinates": [ -61.92, -38.76 ] } },
{ "type": "Feature", "properties": { "nombre": "BALDE", "estilo_id": 18, "link": "74056030", "varones": 303, "mujeres": 286, "personas": 589 }, "geometry": { "type": "Point", "coordinates": [ -66.63, -33.34 ] } },
{ "type": "Feature", "properties": { "nombre": "BALDE DE LA PUNTA", "estilo_id": 18, "link": "10042020", "varones": 59, "mujeres": 57, "personas": 116 }, "geometry": { "type": "Point", "coordinates": [ -65.58, -29.56 ] } },
{ "type": "Feature", "properties": { "nombre": "BALDE DEL ROSARIO", "estilo_id": 18, "link": "70119020", "varones": 57, "mujeres": 36, "personas": 93 }, "geometry": { "type": "Point", "coordinates": [ -67.69, -30.32 ] } },
{ "type": "Feature", "properties": { "nombre": "BALLESTEROS", "estilo_id": 18, "link": "14182040", "varones": 1941, "mujeres": 1987, "personas": 3928 }, "geometry": { "type": "Point", "coordinates": [ -62.98, -32.55 ] } },
{ "type": "Feature", "properties": { "nombre": "BALLESTEROS SUR", "estilo_id": 18, "link": "14182050", "varones": 282, "mujeres": 250, "personas": 532 }, "geometry": { "type": "Point", "coordinates": [ -63.03, -32.59 ] } },
{ "type": "Feature", "properties": { "nombre": "BALNEARIA", "estilo_id": 18, "link": "14140040", "varones": 2940, "mujeres": 3165, "personas": 6105 }, "geometry": { "type": "Point", "coordinates": [ -62.67, -31.01 ] } },
{ "type": "Feature", "properties": { "nombre": "BALNEARIO LAGUNA DE GOMEZ", "estilo_id": 18, "link": "06413030", "varones": 114, "mujeres": 116, "personas": 230 }, "geometry": { "type": "Point", "coordinates": [ -61.02, -34.66 ] } },
{ "type": "Feature", "properties": { "nombre": "BALNEARIO LA VERDE", "estilo_id": 18, "link": "82091040", "varones": 5, "mujeres": 3, "personas": 8 }, "geometry": { "type": "Point", "coordinates": [ -61.24, -29.98 ] } },
{ "type": "Feature", "properties": { "nombre": "BALNEARIO MONJE", "estilo_id": 18, "link": "82105020", "varones": 201, "mujeres": 190, "personas": 391 }, "geometry": { "type": "Point", "coordinates": [ -60.88, -32.33 ] } },
{ "type": "Feature", "properties": { "nombre": "BALNEARIO ORENSE", "estilo_id": 18, "link": "06833010", "varones": 39, "mujeres": 38, "personas": 77 }, "geometry": { "type": "Point", "coordinates": [ -59.74, -38.81 ] } },
{ "type": "Feature", "properties": { "nombre": "BALNEARIO PEHUENCO", "estilo_id": 18, "link": "06182020", "varones": 376, "mujeres": 305, "personas": 681 }, "geometry": { "type": "Point", "coordinates": [ -61.55, -39.0 ] } },
{ "type": "Feature", "properties": { "nombre": "BALNEARIO SAN CAYETANO", "estilo_id": 18, "link": "06742010", "varones": 27, "mujeres": 19, "personas": 46 }, "geometry": { "type": "Point", "coordinates": [ -59.43, -38.75 ] } },
{ "type": "Feature", "properties": { "nombre": "BALNEARIO SAUCE GRANDE", "estilo_id": 18, "link": "06553010", "varones": 65, "mujeres": 53, "personas": 118 }, "geometry": { "type": "Point", "coordinates": [ -61.22, -38.99 ] } },
{ "type": "Feature", "properties": { "nombre": "BANANAL", "estilo_id": 18, "link": "38035010", "varones": 342, "mujeres": 347, "personas": 689 }, "geometry": { "type": "Point", "coordinates": [ -64.5, -23.57 ] } },
{ "type": "Feature", "properties": { "nombre": "BANCO PAYAGUA", "estilo_id": 18, "link": "34021010", "varones": 183, "mujeres": 191, "personas": 374 }, "geometry": { "type": "Point", "coordinates": [ -58.34, -26.71 ] } },
{ "type": "Feature", "properties": { "nombre": "BANDA DE LUCERO", "estilo_id": 18, "link": "10105030", "varones": 137, "mujeres": 131, "personas": 268 }, "geometry": { "type": "Point", "coordinates": [ -67.51, -28.07 ] } },
{ "type": "Feature", "properties": { "nombre": "BANDERA BAJADA", "estilo_id": 18, "link": "86070010", "varones": 475, "mujeres": 489, "personas": 964 }, "geometry": { "type": "Point", "coordinates": [ -63.46, -27.29 ] } },
{ "type": "Feature", "properties": { "nombre": "BANDERALO", "estilo_id": 18, "link": "06392010", "varones": 654, "mujeres": 685, "personas": 1339 }, "geometry": { "type": "Point", "coordinates": [ -63.37, -35.01 ] } },
{ "type": "Feature", "properties": { "nombre": "BAÑADO DE SOTO", "estilo_id": 18, "link": "14028020", "varones": 242, "mujeres": 224, "personas": 466 }, "geometry": { "type": "Point", "coordinates": [ -65.04, -30.8 ] } },
{ "type": "Feature", "properties": { "nombre": "BARCENA", "estilo_id": 18, "link": "38098010", "varones": 75, "mujeres": 64, "personas": 139 }, "geometry": { "type": "Point", "coordinates": [ -65.45, -23.97 ] } },
{ "type": "Feature", "properties": { "nombre": "BARDA DEL MEDIO", "estilo_id": 18, "link": "62042030", "varones": 829, "mujeres": 822, "personas": 1651 }, "geometry": { "type": "Point", "coordinates": [ -68.16, -38.73 ] } },
{ "type": "Feature", "properties": { "nombre": "BARKER", "estilo_id": 18, "link": "06084010", "varones": 596, "mujeres": 645, "personas": 1241 }, "geometry": { "type": "Point", "coordinates": [ -59.39, -37.64 ] } },
{ "type": "Feature", "properties": { "nombre": "BARRA CONCEPCION", "estilo_id": 18, "link": "54035010", "varones": 18, "mujeres": 21, "personas": 39 }, "geometry": { "type": "Point", "coordinates": [ -55.58, -28.11 ] } },
{ "type": "Feature", "properties": { "nombre": "BARRANCA LARGA", "estilo_id": 18, "link": "10035010", "varones": 148, "mujeres": 182, "personas": 330 }, "geometry": { "type": "Point", "coordinates": [ -66.75, -26.94 ] } },
{ "type": "Feature", "properties": { "nombre": "BARRANCAS", "estilo_id": 18, "link": "58091010", "varones": 462, "mujeres": 476, "personas": 938 }, "geometry": { "type": "Point", "coordinates": [ -69.92, -36.83 ] } },
{ "type": "Feature", "properties": { "nombre": "BARRANCAS", "estilo_id": 18, "link": "50070010", "varones": 96, "mujeres": 98, "personas": 194 }, "geometry": { "type": "Point", "coordinates": [ -68.73, -33.08 ] } },
{ "type": "Feature", "properties": { "nombre": "BARRANCAS", "estilo_id": 18, "link": "82105030", "varones": 2244, "mujeres": 2406, "personas": 4650 }, "geometry": { "type": "Point", "coordinates": [ -60.98, -32.24 ] } },
{ "type": "Feature", "properties": { "nombre": "BARRANQUERAS", "estilo_id": 18, "link": "22140010", "varones": 26290, "mujeres": 28408, "personas": 54698 }, "geometry": { "type": "Point", "coordinates": [ -58.93, -27.49 ] } },
{ "type": "Feature", "properties": { "nombre": "BARREAL-VILLA PITUIL", "estilo_id": 18, "link": "70021010", "varones": 1735, "mujeres": 1728, "personas": 3463 }, "geometry": { "type": "Point", "coordinates": [ -69.48, -31.65 ] } },
{ "type": "Feature", "properties": { "nombre": "BARRIO 12 DE OCTUBRE", "estilo_id": 18, "link": "50112010", "varones": 106, "mujeres": 71, "personas": 177 }, "geometry": { "type": "Point", "coordinates": [ -68.28, -33.19 ] } },
{ "type": "Feature", "properties": { "nombre": "BARRIO ALTO DEL OLVIDO", "estilo_id": 18, "link": "50056010", "varones": 138, "mujeres": 128, "personas": 266 }, "geometry": { "type": "Point", "coordinates": [ -68.59, -32.67 ] } },
{ "type": "Feature", "properties": { "nombre": "BARRIO ARROYO DEL MEDIO", "estilo_id": 18, "link": "82028020", "varones": 161, "mujeres": 149, "personas": 310 }, "geometry": { "type": "Point", "coordinates": [ -60.27, -33.29 ] } },
{ "type": "Feature", "properties": { "nombre": "BARRIO BELGRANO NORTE", "estilo_id": 18, "link": "50126010", "varones": 730, "mujeres": 662, "personas": 1392 }, "geometry": { "type": "Point", "coordinates": [ -69.14, -33.33 ] } },
{ "type": "Feature", "properties": { "nombre": "BARRIO BLANCO", "estilo_id": 18, "link": "62042040", "varones": 29, "mujeres": 32, "personas": 61 }, "geometry": { "type": "Point", "coordinates": [ -67.79, -39.03 ] } },
{ "type": "Feature", "properties": { "nombre": "BARRIO CAIMA", "estilo_id": 18, "link": "82105040", "varones": 861, "mujeres": 794, "personas": 1655 }, "geometry": { "type": "Point", "coordinates": [ -60.87, -31.83 ] } },
{ "type": "Feature", "properties": { "nombre": "BARRIO CALLE CIEGA N 10", "estilo_id": 18, "link": "62042050", "varones": 24, "mujeres": 28, "personas": 52 }, "geometry": { "type": "Point", "coordinates": [ -67.8, -39.02 ] } },
{ "type": "Feature", "properties": { "nombre": "BARRIO CALLE CIEGA N 6", "estilo_id": 18, "link": "62042060", "varones": 12, "mujeres": 11, "personas": 23 }, "geometry": { "type": "Point", "coordinates": [ -67.75, -39.04 ] } },
{ "type": "Feature", "properties": { "nombre": "BARRIO CAMPOS EL TOLEDANO", "estilo_id": 18, "link": "50105010", "varones": 464, "mujeres": 492, "personas": 956 }, "geometry": { "type": "Point", "coordinates": [ -68.33, -34.57 ] } },
{ "type": "Feature", "properties": { "nombre": "BARRIO CANALE", "estilo_id": 18, "link": "62042070", "varones": 41, "mujeres": 25, "personas": 66 }, "geometry": { "type": "Point", "coordinates": [ -67.64, -39.07 ] } },
{ "type": "Feature", "properties": { "nombre": "BARRIO CARRASCO", "estilo_id": 18, "link": "50091005", "varones": 59, "mujeres": 76, "personas": 135 }, "geometry": { "type": "Point", "coordinates": [ -69.05, -33.83 ] } },
{ "type": "Feature", "properties": { "nombre": "BARRIO CASA ROSADA", "estilo_id": 18, "link": "90028010", "varones": 542, "mujeres": 599, "personas": 1141 }, "geometry": { "type": "Point", "coordinates": [ -65.43, -27.04 ] } },
{ "type": "Feature", "properties": { "nombre": "BARRIO CHACRA MONTE", "estilo_id": 18, "link": "62042080", "varones": 965, "mujeres": 935, "personas": 1900 }, "geometry": { "type": "Point", "coordinates": [ -67.64, -39.05 ] } },
{ "type": "Feature", "properties": { "nombre": "BARRIO CHIVILCOY", "estilo_id": 18, "link": "50098030", "varones": 198, "mujeres": 205, "personas": 403 }, "geometry": { "type": "Point", "coordinates": [ -68.35, -33.04 ] } },
{ "type": "Feature", "properties": { "nombre": "BARRIO CICARELLI", "estilo_id": 18, "link": "82056010", "varones": 13, "mujeres": 15, "personas": 28 }, "geometry": { "type": "Point", "coordinates": [ -61.32, -32.61 ] } },
{ "type": "Feature", "properties": { "nombre": "BARRIO COLONIA CONESA", "estilo_id": 18, "link": "62028010", "varones": 72, "mujeres": 57, "personas": 129 }, "geometry": { "type": "Point", "coordinates": [ -64.33, -40.14 ] } },
{ "type": "Feature", "properties": { "nombre": "BARRIO COOPERATIVA LOS CAMPAMENTOS", "estilo_id": 18, "link": "50084020", "varones": 136, "mujeres": 131, "personas": 267 }, "geometry": { "type": "Point", "coordinates": [ -68.44, -33.27 ] } },
{ "type": "Feature", "properties": { "nombre": "BARRIO COSTA ESTE", "estilo_id": 18, "link": "62042090", "varones": 134, "mujeres": 133, "personas": 267 }, "geometry": { "type": "Point", "coordinates": [ -67.81, -39.04 ] } },
{ "type": "Feature", "properties": { "nombre": "BARRIO COSTA LINDA", "estilo_id": 18, "link": "62042100", "varones": 161, "mujeres": 149, "personas": 310 }, "geometry": { "type": "Point", "coordinates": [ -67.91, -38.94 ] } },
{ "type": "Feature", "properties": { "nombre": "BARRIO COSTA OESTE", "estilo_id": 18, "link": "62042110", "varones": 441, "mujeres": 393, "personas": 834 }, "geometry": { "type": "Point", "coordinates": [ -67.84, -39.03 ] } },
{ "type": "Feature", "properties": { "nombre": "BARRIO CUATRO BOCAS", "estilo_id": 18, "link": "54084003", "varones": 169, "mujeres": 167, "personas": 336 }, "geometry": { "type": "Point", "coordinates": [ -54.67, -26.55 ] } },
{ "type": "Feature", "properties": { "nombre": "BARRIO DEL LAGO", "estilo_id": 18, "link": "54021005", "varones": 42, "mujeres": 27, "personas": 69 }, "geometry": { "type": "Point", "coordinates": [ -55.8, -27.46 ] } },
{ "type": "Feature", "properties": { "nombre": "BARRIO DE LOS PESCADORES", "estilo_id": 18, "link": "22126010", "varones": 389, "mujeres": 406, "personas": 795 }, "geometry": { "type": "Point", "coordinates": [ -58.86, -27.45 ] } },
{ "type": "Feature", "properties": { "nombre": "BARRIO DESTACAMENTO", "estilo_id": 18, "link": "62042115", "varones": 20, "mujeres": 20, "personas": 40 }, "geometry": { "type": "Point", "coordinates": [ -67.87, -37.69 ] } },
{ "type": "Feature", "properties": { "nombre": "BARRIO EL BOQUERON", "estilo_id": 18, "link": "06357020", "varones": 248, "mujeres": 261, "personas": 509 }, "geometry": { "type": "Point", "coordinates": [ -57.8, -38.03 ] } },
{ "type": "Feature", "properties": { "nombre": "BARRIO EL CEPILLO", "estilo_id": 18, "link": "50091010", "varones": 61, "mujeres": 48, "personas": 109 }, "geometry": { "type": "Point", "coordinates": [ -69.13, -33.84 ] } },
{ "type": "Feature", "properties": { "nombre": "BARRIO EL CRUCE", "estilo_id": 18, "link": "90105010", "varones": 311, "mujeres": 309, "personas": 620 }, "geometry": { "type": "Point", "coordinates": [ -65.22, -26.71 ] } },
{ "type": "Feature", "properties": { "nombre": "BARRIO EL LABRADOR", "estilo_id": 18, "link": "62042120", "varones": 147, "mujeres": 116, "personas": 263 }, "geometry": { "type": "Point", "coordinates": [ -68.23, -38.67 ] } },
{ "type": "Feature", "properties": { "nombre": "BARRIO EL MARUCHITO", "estilo_id": 18, "link": "62042130", "varones": 23, "mujeres": 28, "personas": 51 }, "geometry": { "type": "Point", "coordinates": [ -67.76, -39.0 ] } },
{ "type": "Feature", "properties": { "nombre": "BARRIO EL MILAGRO", "estilo_id": 18, "link": "38014020", "varones": 658, "mujeres": 663, "personas": 1321 }, "geometry": { "type": "Point", "coordinates": [ -65.12, -24.46 ] } },
{ "type": "Feature", "properties": { "nombre": "BARRIO EL MIRADOR", "estilo_id": 18, "link": "06119015", "varones": 116, "mujeres": 110, "personas": 226 }, "geometry": { "type": "Point", "coordinates": [ -58.05, -35.31 ] } },
{ "type": "Feature", "properties": { "nombre": "BARRIO EL NEVADO", "estilo_id": 18, "link": "50105020", "varones": 70, "mujeres": 90, "personas": 160 }, "geometry": { "type": "Point", "coordinates": [ -67.99, -34.79 ] } },
{ "type": "Feature", "properties": { "nombre": "BARRIO EL PACAA-BARRIO COMIPINI", "estilo_id": 18, "link": "82105050", "varones": 10, "mujeres": 2, "personas": 12 }, "geometry": { "type": "Point", "coordinates": [ -60.93, -32.13 ] } },
{ "type": "Feature", "properties": { "nombre": "BARRIO EL PETROLEO", "estilo_id": 18, "link": "62042140", "varones": 44, "mujeres": 40, "personas": 84 }, "geometry": { "type": "Point", "coordinates": [ -67.51, -39.06 ] } },
{ "type": "Feature", "properties": { "nombre": "BARRIO EL PILAR", "estilo_id": 18, "link": "62021010", "varones": 258, "mujeres": 263, "personas": 521 }, "geometry": { "type": "Point", "coordinates": [ -71.35, -41.18 ] } },
{ "type": "Feature", "properties": { "nombre": "BARRIO EL TALADRO", "estilo_id": 18, "link": "06134020", "varones": 89, "mujeres": 66, "personas": 155 }, "geometry": { "type": "Point", "coordinates": [ -58.86, -35.07 ] } },
{ "type": "Feature", "properties": { "nombre": "BARRIO EMANUEL", "estilo_id": 18, "link": "50098040", "varones": 36, "mujeres": 39, "personas": 75 }, "geometry": { "type": "Point", "coordinates": [ -68.41, -32.85 ] } },
{ "type": "Feature", "properties": { "nombre": "BARRIO EMERGENTE", "estilo_id": 18, "link": "62042143", "varones": 24, "mujeres": 20, "personas": 44 }, "geometry": { "type": "Point", "coordinates": [ -67.85, -39.0 ] } },
{ "type": "Feature", "properties": { "nombre": "BARRIO EMPLEADOS DE COMERCIO", "estilo_id": 18, "link": "50105030", "varones": 105, "mujeres": 103, "personas": 208 }, "geometry": { "type": "Point", "coordinates": [ -68.3, -34.55 ] } },
{ "type": "Feature", "properties": { "nombre": "BARRIO ESCUELA 461", "estilo_id": 18, "link": "54091013", "varones": 209, "mujeres": 202, "personas": 411 }, "geometry": { "type": "Point", "coordinates": [ -55.04, -27.62 ] } },
{ "type": "Feature", "properties": { "nombre": "BARRIO ESCUELA 633", "estilo_id": 18, "link": "54091017", "varones": 366, "mujeres": 353, "personas": 719 }, "geometry": { "type": "Point", "coordinates": [ -55.08, -27.47 ] } },
{ "type": "Feature", "properties": { "nombre": "BARRIO ESPERANZA", "estilo_id": 18, "link": "62063005", "varones": 29, "mujeres": 38, "personas": 67 }, "geometry": { "type": "Point", "coordinates": [ -64.0, -39.04 ] } },
{ "type": "Feature", "properties": { "nombre": "BARRIO FATIMA", "estilo_id": 18, "link": "62042147", "varones": 66, "mujeres": 70, "personas": 136 }, "geometry": { "type": "Point", "coordinates": [ -67.47, -39.05 ] } },
{ "type": "Feature", "properties": { "nombre": "BARRIO FINCA LA MAROMA", "estilo_id": 18, "link": "66042003", "varones": 32, "mujeres": 37, "personas": 69 }, "geometry": { "type": "Point", "coordinates": [ -65.44, -25.15 ] } },
{ "type": "Feature", "properties": { "nombre": "BARRIO FRONTERA", "estilo_id": 18, "link": "62042150", "varones": 41, "mujeres": 28, "personas": 69 }, "geometry": { "type": "Point", "coordinates": [ -67.71, -39.07 ] } },
{ "type": "Feature", "properties": { "nombre": "BARRIO GILBERT", "estilo_id": 18, "link": "14147030", "varones": 624, "mujeres": 653, "personas": 1277 }, "geometry": { "type": "Point", "coordinates": [ -64.32, -31.44 ] } },
{ "type": "Feature", "properties": { "nombre": "BARRIO GUATAMBU", "estilo_id": 18, "link": "54084005", "varones": 162, "mujeres": 143, "personas": 305 }, "geometry": { "type": "Point", "coordinates": [ -54.7, -26.6 ] } },
{ "type": "Feature", "properties": { "nombre": "BARRIO GUERRICO", "estilo_id": 18, "link": "62042160", "varones": 25, "mujeres": 27, "personas": 52 }, "geometry": { "type": "Point", "coordinates": [ -67.73, -39.04 ] } },
{ "type": "Feature", "properties": { "nombre": "BARRIO INTENDENCIA", "estilo_id": 18, "link": "50105040", "varones": 59, "mujeres": 61, "personas": 120 }, "geometry": { "type": "Point", "coordinates": [ -68.27, -34.64 ] } },
{ "type": "Feature", "properties": { "nombre": "BARRIO ISLA 10", "estilo_id": 18, "link": "62042170", "varones": 151, "mujeres": 161, "personas": 312 }, "geometry": { "type": "Point", "coordinates": [ -67.92, -39.0 ] } },
{ "type": "Feature", "properties": { "nombre": "BARRIO ITA", "estilo_id": 18, "link": "54084007", "varones": 296, "mujeres": 285, "personas": 581 }, "geometry": { "type": "Point", "coordinates": [ -54.71, -26.53 ] } },
{ "type": "Feature", "properties": { "nombre": "BARRIO JESUS DE NAZARET", "estilo_id": 18, "link": "50070020", "varones": 187, "mujeres": 212, "personas": 399 }, "geometry": { "type": "Point", "coordinates": [ -68.73, -33.01 ] } },
{ "type": "Feature", "properties": { "nombre": "BARRIO JOCOLI II", "estilo_id": 18, "link": "50056020", "varones": 76, "mujeres": 87, "personas": 163 }, "geometry": { "type": "Point", "coordinates": [ -68.67, -32.67 ] } },
{ "type": "Feature", "properties": { "nombre": "BARRIO JUSTO P. CASTRO IV", "estilo_id": 18, "link": "70035015", "varones": 281, "mujeres": 308, "personas": 589 }, "geometry": { "type": "Point", "coordinates": [ -68.3, -31.63 ] } },
{ "type": "Feature", "properties": { "nombre": "BARRIO LABARDA", "estilo_id": 18, "link": "62042180", "varones": 43, "mujeres": 28, "personas": 71 }, "geometry": { "type": "Point", "coordinates": [ -67.22, -39.05 ] } },
{ "type": "Feature", "properties": { "nombre": "BARRIO LA COSTA", "estilo_id": 18, "link": "62042190", "varones": 49, "mujeres": 45, "personas": 94 }, "geometry": { "type": "Point", "coordinates": [ -67.54, -39.08 ] } },
{ "type": "Feature", "properties": { "nombre": "BARRIO LA COSTA", "estilo_id": 18, "link": "62042200", "varones": 47, "mujeres": 48, "personas": 95 }, "geometry": { "type": "Point", "coordinates": [ -67.2, -39.09 ] } },
{ "type": "Feature", "properties": { "nombre": "BARRIO LA DEFENSA", "estilo_id": 18, "link": "62042210", "varones": 111, "mujeres": 98, "personas": 209 }, "geometry": { "type": "Point", "coordinates": [ -67.39, -39.03 ] } },
{ "type": "Feature", "properties": { "nombre": "BARRIO LA ESTACION", "estilo_id": 18, "link": "50098045", "varones": 61, "mujeres": 50, "personas": 111 }, "geometry": { "type": "Point", "coordinates": [ -68.35, -33.16 ] } },
{ "type": "Feature", "properties": { "nombre": "BARRIO LA GLORIA", "estilo_id": 18, "link": "06357050", "varones": 222, "mujeres": 193, "personas": 415 }, "geometry": { "type": "Point", "coordinates": [ -57.79, -37.91 ] } },
{ "type": "Feature", "properties": { "nombre": "BARRIO LAGUNAS DE BARTOLUZZI", "estilo_id": 18, "link": "50056050", "varones": 140, "mujeres": 150, "personas": 290 }, "geometry": { "type": "Point", "coordinates": [ -68.57, -32.61 ] } },
{ "type": "Feature", "properties": { "nombre": "BARRIO LA HERRADURA", "estilo_id": 18, "link": "62042215", "varones": 21, "mujeres": 28, "personas": 49 }, "geometry": { "type": "Point", "coordinates": [ -67.78, -39.04 ] } },
{ "type": "Feature", "properties": { "nombre": "BARRIO LA PALMERA", "estilo_id": 18, "link": "50056030", "varones": 69, "mujeres": 67, "personas": 136 }, "geometry": { "type": "Point", "coordinates": [ -68.55, -32.7 ] } },
{ "type": "Feature", "properties": { "nombre": "BARRIO LA PEGA", "estilo_id": 18, "link": "50056040", "varones": 188, "mujeres": 204, "personas": 392 }, "geometry": { "type": "Point", "coordinates": [ -68.68, -32.81 ] } },
{ "type": "Feature", "properties": { "nombre": "BARRIO LA RIBERA-BARRIO APYCAR", "estilo_id": 18, "link": "62042230", "varones": 230, "mujeres": 240, "personas": 470 }, "geometry": { "type": "Point", "coordinates": [ -67.58, -39.08 ] } },
{ "type": "Feature", "properties": { "nombre": "BARRIO LA ROTONDA", "estilo_id": 18, "link": "66042005", "varones": 494, "mujeres": 495, "personas": 989 }, "geometry": { "type": "Point", "coordinates": [ -65.54, -25.08 ] } },
{ "type": "Feature", "properties": { "nombre": "BARRIO LAS GOLONDRINAS", "estilo_id": 18, "link": "06119020", "varones": 192, "mujeres": 191, "personas": 383 }, "geometry": { "type": "Point", "coordinates": [ -58.19, -35.03 ] } },
{ "type": "Feature", "properties": { "nombre": "BARRIO LA UNION", "estilo_id": 18, "link": "38014030", "varones": 362, "mujeres": 338, "personas": 700 }, "geometry": { "type": "Point", "coordinates": [ -65.07, -24.4 ] } },
{ "type": "Feature", "properties": { "nombre": "BARRIO LOMA SALTAS", "estilo_id": 18, "link": "06217003", "varones": 34, "mujeres": 27, "personas": 61 }, "geometry": { "type": "Point", "coordinates": [ -58.07, -35.57 ] } },
{ "type": "Feature", "properties": { "nombre": "BARRIO LOMAS DE TAFI", "estilo_id": 18, "link": "90105020", "varones": 264, "mujeres": 264, "personas": 528 }, "geometry": { "type": "Point", "coordinates": [ -65.23, -26.75 ] } },
{ "type": "Feature", "properties": { "nombre": "BARRIO LOS BOSQUECITOS", "estilo_id": 18, "link": "06119030", "varones": 60, "mujeres": 64, "personas": 124 }, "geometry": { "type": "Point", "coordinates": [ -58.18, -35.1 ] } },
{ "type": "Feature", "properties": { "nombre": "BARRIO LOS CHARABONES", "estilo_id": 18, "link": "50098050", "varones": 109, "mujeres": 118, "personas": 227 }, "geometry": { "type": "Point", "coordinates": [ -68.31, -32.98 ] } },
{ "type": "Feature", "properties": { "nombre": "BARRIO LOS JARILLEROS", "estilo_id": 18, "link": "50056060", "varones": 425, "mujeres": 406, "personas": 831 }, "geometry": { "type": "Point", "coordinates": [ -68.66, -32.72 ] } },
{ "type": "Feature", "properties": { "nombre": "BARRIO LOS OLIVOS", "estilo_id": 18, "link": "50056070", "varones": 36, "mujeres": 37, "personas": 73 }, "geometry": { "type": "Point", "coordinates": [ -68.33, -32.7 ] } },
{ "type": "Feature", "properties": { "nombre": "BARRIO LOS PIONEROS(BARRIO TAVELLA)", "estilo_id": 18, "link": "06126020", "varones": 1539, "mujeres": 284, "personas": 1823 }, "geometry": { "type": "Point", "coordinates": [ -58.96, -34.25 ] } },
{ "type": "Feature", "properties": { "nombre": "BARRIO LUISILLO", "estilo_id": 18, "link": "62042245", "varones": 31, "mujeres": 21, "personas": 52 }, "geometry": { "type": "Point", "coordinates": [ -67.35, -39.05 ] } },
{ "type": "Feature", "properties": { "nombre": "BARRIO MAR DEL PLATA", "estilo_id": 18, "link": "62042250", "varones": 23, "mujeres": 12, "personas": 35 }, "geometry": { "type": "Point", "coordinates": [ -67.65, -39.08 ] } },
{ "type": "Feature", "properties": { "nombre": "BARRIO MARIA AUXILIADORA", "estilo_id": 18, "link": "50112020", "varones": 47, "mujeres": 47, "personas": 94 }, "geometry": { "type": "Point", "coordinates": [ -68.18, -33.24 ] } },
{ "type": "Feature", "properties": { "nombre": "BARRIO MARIA ELVIRA", "estilo_id": 18, "link": "62042260", "varones": 98, "mujeres": 64, "personas": 162 }, "geometry": { "type": "Point", "coordinates": [ -67.96, -38.99 ] } },
{ "type": "Feature", "properties": { "nombre": "BARRIO MITRE", "estilo_id": 18, "link": "82028030", "varones": 424, "mujeres": 392, "personas": 816 }, "geometry": { "type": "Point", "coordinates": [ -60.39, -33.26 ] } },
{ "type": "Feature", "properties": { "nombre": "BARRIO MOLINA CABRERA", "estilo_id": 18, "link": "50112030", "varones": 118, "mujeres": 121, "personas": 239 }, "geometry": { "type": "Point", "coordinates": [ -68.2, -33.13 ] } },
{ "type": "Feature", "properties": { "nombre": "BARRIO MOSCONI", "estilo_id": 18, "link": "62042270", "varones": 282, "mujeres": 282, "personas": 564 }, "geometry": { "type": "Point", "coordinates": [ -67.59, -39.09 ] } },
{ "type": "Feature", "properties": { "nombre": "BARRIO MUNICIPAL", "estilo_id": 18, "link": "70070005", "varones": 465, "mujeres": 508, "personas": 973 }, "geometry": { "type": "Point", "coordinates": [ -68.56, -31.75 ] } },
{ "type": "Feature", "properties": { "nombre": "BARRIO MUTUAL SAN MARTIN", "estilo_id": 18, "link": "90105030", "varones": 529, "mujeres": 603, "personas": 1132 }, "geometry": { "type": "Point", "coordinates": [ -65.22, -26.72 ] } },
{ "type": "Feature", "properties": { "nombre": "BARRIO NORTE", "estilo_id": 18, "link": "62042280", "varones": 16, "mujeres": 18, "personas": 34 }, "geometry": { "type": "Point", "coordinates": [ -68.02, -38.86 ] } },
{ "type": "Feature", "properties": { "nombre": "BARRIO NUESTRA SEÑORA DE FATIMA", "estilo_id": 18, "link": "50098055", "varones": 89, "mujeres": 114, "personas": 203 }, "geometry": { "type": "Point", "coordinates": [ -68.35, -33.13 ] } },
{ "type": "Feature", "properties": { "nombre": "BARRIO NUEVO GARUPA", "estilo_id": 18, "link": "54028005", "varones": 196, "mujeres": 179, "personas": 375 }, "geometry": { "type": "Point", "coordinates": [ -55.83, -27.43 ] } },
{ "type": "Feature", "properties": { "nombre": "BARRIO NUEVO RIO CEBALLOS", "estilo_id": 18, "link": "14021025", "varones": 47, "mujeres": 53, "personas": 100 }, "geometry": { "type": "Point", "coordinates": [ -64.29, -31.2 ] } },
{ "type": "Feature", "properties": { "nombre": "BARRIO PARADA 14", "estilo_id": 18, "link": "90105040", "varones": 140, "mujeres": 154, "personas": 294 }, "geometry": { "type": "Point", "coordinates": [ -65.25, -26.75 ] } },
{ "type": "Feature", "properties": { "nombre": "BARRIO PARQUE LAS ACACIAS", "estilo_id": 18, "link": "06119040", "varones": 127, "mujeres": 102, "personas": 229 }, "geometry": { "type": "Point", "coordinates": [ -58.27, -35.1 ] } },
{ "type": "Feature", "properties": { "nombre": "BARRIO PERDRIEL IV", "estilo_id": 18, "link": "50063020", "varones": 184, "mujeres": 187, "personas": 371 }, "geometry": { "type": "Point", "coordinates": [ -68.92, -33.08 ] } },
{ "type": "Feature", "properties": { "nombre": "BARRIO PINAR", "estilo_id": 18, "link": "62042297", "varones": 23, "mujeres": 15, "personas": 38 }, "geometry": { "type": "Point", "coordinates": [ -67.87, -37.67 ] } },
{ "type": "Feature", "properties": { "nombre": "BARRIO PLANTA COMPRESORA DE GAS", "estilo_id": 18, "link": "62028030", "varones": 13, "mujeres": 7, "personas": 20 }, "geometry": { "type": "Point", "coordinates": [ -64.47, -40.06 ] } },
{ "type": "Feature", "properties": { "nombre": "BARRIO PORVENIR", "estilo_id": 18, "link": "62042310", "varones": 24, "mujeres": 15, "personas": 39 }, "geometry": { "type": "Point", "coordinates": [ -67.46, -39.04 ] } },
{ "type": "Feature", "properties": { "nombre": "BARRIO PUENTE 83", "estilo_id": 18, "link": "62042330", "varones": 1290, "mujeres": 1222, "personas": 2512 }, "geometry": { "type": "Point", "coordinates": [ -67.95, -38.96 ] } },
{ "type": "Feature", "properties": { "nombre": "BLAQUIER", "estilo_id": 18, "link": "06277010", "varones": 342, "mujeres": 334, "personas": 676 }, "geometry": { "type": "Point", "coordinates": [ -62.48, -34.64 ] } },
{ "type": "Feature", "properties": { "nombre": "BOCAYUVA", "estilo_id": 18, "link": "06616010", "varones": 42, "mujeres": 41, "personas": 83 }, "geometry": { "type": "Point", "coordinates": [ -63.08, -36.21 ] } },
{ "type": "Feature", "properties": { "nombre": "BOMBAL", "estilo_id": 18, "link": "82028040", "varones": 1536, "mujeres": 1601, "personas": 3137 }, "geometry": { "type": "Point", "coordinates": [ -61.32, -33.46 ] } },
{ "type": "Feature", "properties": { "nombre": "BONPLAND", "estilo_id": 18, "link": "18119010", "varones": 520, "mujeres": 509, "personas": 1029 }, "geometry": { "type": "Point", "coordinates": [ -57.43, -29.82 ] } },
{ "type": "Feature", "properties": { "nombre": "BONPLAND", "estilo_id": 18, "link": "54021010", "varones": 907, "mujeres": 935, "personas": 1842 }, "geometry": { "type": "Point", "coordinates": [ -55.48, -27.48 ] } },
{ "type": "Feature", "properties": { "nombre": "BORDENAVE", "estilo_id": 18, "link": "06651020", "varones": 417, "mujeres": 435, "personas": 852 }, "geometry": { "type": "Point", "coordinates": [ -63.04, -37.8 ] } },
{ "type": "Feature", "properties": { "nombre": "BOUQUET", "estilo_id": 18, "link": "82007020", "varones": 623, "mujeres": 607, "personas": 1230 }, "geometry": { "type": "Point", "coordinates": [ -61.89, -32.42 ] } },
{ "type": "Feature", "properties": { "nombre": "BOUWER", "estilo_id": 18, "link": "14147050", "varones": 407, "mujeres": 434, "personas": 841 }, "geometry": { "type": "Point", "coordinates": [ -64.19, -31.56 ] } },
{ "type": "Feature", "properties": { "nombre": "BOVRIL", "estilo_id": 18, "link": "30070010", "varones": 4173, "mujeres": 4404, "personas": 8577 }, "geometry": { "type": "Point", "coordinates": [ -59.45, -31.34 ] } },
{ "type": "Feature", "properties": { "nombre": "BOWEN", "estilo_id": 18, "link": "50014010", "varones": 2393, "mujeres": 2546, "personas": 4939 }, "geometry": { "type": "Point", "coordinates": [ -67.52, -35.0 ] } },
{ "type": "Feature", "properties": { "nombre": "BRINKMANN", "estilo_id": 18, "link": "14140050", "varones": 4767, "mujeres": 5123, "personas": 9890 }, "geometry": { "type": "Point", "coordinates": [ -62.04, -30.87 ] } },
{ "type": "Feature", "properties": { "nombre": "BUENA VISTA", "estilo_id": 18, "link": "34042010", "varones": 450, "mujeres": 437, "personas": 887 }, "geometry": { "type": "Point", "coordinates": [ -58.39, -25.07 ] } },
{ "type": "Feature", "properties": { "nombre": "BUENOS AIRES CHICO", "estilo_id": 18, "link": "26014010", "varones": 119, "mujeres": 134, "personas": 253 }, "geometry": { "type": "Point", "coordinates": [ -71.22, -42.07 ] } },
{ "type": "Feature", "properties": { "nombre": "BUEN PASTO", "estilo_id": 18, "link": "26091010", "varones": 51, "mujeres": 54, "personas": 105 }, "geometry": { "type": "Point", "coordinates": [ -69.45, -45.08 ] } },
{ "type": "Feature", "properties": { "nombre": "BULNES", "estilo_id": 18, "link": "14098060", "varones": 508, "mujeres": 543, "personas": 1051 }, "geometry": { "type": "Point", "coordinates": [ -64.68, -33.5 ] } },
{ "type": "Feature", "properties": { "nombre": "BUSTINZA", "estilo_id": 18, "link": "82056020", "varones": 539, "mujeres": 559, "personas": 1098 }, "geometry": { "type": "Point", "coordinates": [ -61.29, -32.74 ] } },
{ "type": "Feature", "properties": { "nombre": "CAA-YARI", "estilo_id": 18, "link": "54070030", "varones": 64, "mujeres": 58, "personas": 122 }, "geometry": { "type": "Point", "coordinates": [ -55.3, -27.48 ] } },
{ "type": "Feature", "properties": { "nombre": "CABAL", "estilo_id": 18, "link": "82063040", "varones": 25, "mujeres": 29, "personas": 54 }, "geometry": { "type": "Point", "coordinates": [ -60.73, -31.1 ] } },
{ "type": "Feature", "properties": { "nombre": "CABALANGO", "estilo_id": 18, "link": "14091030", "varones": 169, "mujeres": 167, "personas": 336 }, "geometry": { "type": "Point", "coordinates": [ -64.56, -31.39 ] } },
{ "type": "Feature", "properties": { "nombre": "CABILDO", "estilo_id": 18, "link": "06056020", "varones": 980, "mujeres": 1066, "personas": 2046 }, "geometry": { "type": "Point", "coordinates": [ -61.89, -38.48 ] } },
{ "type": "Feature", "properties": { "nombre": "CABRA CORRAL", "estilo_id": 18, "link": "66098020", "varones": 19, "mujeres": 8, "personas": 27 }, "geometry": { "type": "Point", "coordinates": [ -65.39, -25.29 ] } },
{ "type": "Feature", "properties": { "nombre": "CABURE I", "estilo_id": 18, "link": "54049025", "varones": 128, "mujeres": 97, "personas": 225 }, "geometry": { "type": "Point", "coordinates": [ -54.14, -25.68 ] } },
{ "type": "Feature", "properties": { "nombre": "CACHARI", "estilo_id": 18, "link": "06049030", "varones": 1437, "mujeres": 1523, "personas": 2960 }, "geometry": { "type": "Point", "coordinates": [ -59.5, -36.38 ] } },
{ "type": "Feature", "properties": { "nombre": "CACHEUTA", "estilo_id": 18, "link": "50063030", "varones": 629, "mujeres": 7, "personas": 636 }, "geometry": { "type": "Point", "coordinates": [ -69.12, -33.04 ] } },
{ "type": "Feature", "properties": { "nombre": "CACHIRULO", "estilo_id": 18, "link": "42140005", "varones": 19, "mujeres": 21, "personas": 40 }, "geometry": { "type": "Point", "coordinates": [ -64.37, -36.75 ] } },
{ "type": "Feature", "properties": { "nombre": "CACIQUE ARIACAIQUIN", "estilo_id": 18, "link": "82098020", "varones": 74, "mujeres": 68, "personas": 142 }, "geometry": { "type": "Point", "coordinates": [ -60.23, -30.66 ] } },
{ "type": "Feature", "properties": { "nombre": "CADRET", "estilo_id": 18, "link": "06147020", "varones": 111, "mujeres": 103, "personas": 214 }, "geometry": { "type": "Point", "coordinates": [ -61.34, -35.77 ] } },
{ "type": "Feature", "properties": { "nombre": "CAFFERATA", "estilo_id": 18, "link": "82042030", "varones": 713, "mujeres": 736, "personas": 1449 }, "geometry": { "type": "Point", "coordinates": [ -62.09, -33.44 ] } },
{ "type": "Feature", "properties": { "nombre": "CAIMANCITO", "estilo_id": 18, "link": "38035030", "varones": 2750, "mujeres": 2586, "personas": 5336 }, "geometry": { "type": "Point", "coordinates": [ -64.59, -23.74 ] } },
{ "type": "Feature", "properties": { "nombre": "CALABACILLA", "estilo_id": 18, "link": "30015010", "varones": 432, "mujeres": 447, "personas": 879 }, "geometry": { "type": "Point", "coordinates": [ -58.13, -31.51 ] } },
{ "type": "Feature", "properties": { "nombre": "CALCHAQUI", "estilo_id": 18, "link": "82133010", "varones": 4724, "mujeres": 4927, "personas": 9651 }, "geometry": { "type": "Point", "coordinates": [ -60.29, -29.89 ] } },
{ "type": "Feature", "properties": { "nombre": "CALCHIN", "estilo_id": 18, "link": "14119010", "varones": 1208, "mujeres": 1227, "personas": 2435 }, "geometry": { "type": "Point", "coordinates": [ -63.2, -31.67 ] } },
{ "type": "Feature", "properties": { "nombre": "CALCHINO ESTE", "estilo_id": 18, "link": "14119020", "varones": 380, "mujeres": 379, "personas": 759 }, "geometry": { "type": "Point", "coordinates": [ -63.28, -31.86 ] } },
{ "type": "Feature", "properties": { "nombre": "CALETA OLIVIA", "estilo_id": 18, "link": "78014010", "varones": 26177, "mujeres": 25556, "personas": 51733 }, "geometry": { "type": "Point", "coordinates": [ -67.53, -46.45 ] } },
{ "type": "Feature", "properties": { "nombre": "CALEUFU", "estilo_id": 18, "link": "42126010", "varones": 984, "mujeres": 1030, "personas": 2014 }, "geometry": { "type": "Point", "coordinates": [ -64.56, -35.59 ] } },
{ "type": "Feature", "properties": { "nombre": "COSTA DE ARAUJO", "estilo_id": 18, "link": "50056080", "varones": 1383, "mujeres": 1433, "personas": 2816 }, "geometry": { "type": "Point", "coordinates": [ -68.41, -32.76 ] } },
{ "type": "Feature", "properties": { "nombre": "COSTA DEL CHUBUT", "estilo_id": 18, "link": "26014025", "varones": 37, "mujeres": 19, "personas": 56 }, "geometry": { "type": "Point", "coordinates": [ -70.46, -42.6 ] } },
{ "type": "Feature", "properties": { "nombre": "COSTA DE REYES", "estilo_id": 18, "link": "10105070", "varones": 16, "mujeres": 14, "personas": 30 }, "geometry": { "type": "Point", "coordinates": [ -67.7, -28.3 ] } },
{ "type": "Feature", "properties": { "nombre": "COSTA FLORES", "estilo_id": 18, "link": "50063040", "varones": 162, "mujeres": 135, "personas": 297 }, "geometry": { "type": "Point", "coordinates": [ -68.93, -33.07 ] } },
{ "type": "Feature", "properties": { "nombre": "COSTA SACATE", "estilo_id": 18, "link": "14119070", "varones": 730, "mujeres": 750, "personas": 1480 }, "geometry": { "type": "Point", "coordinates": [ -63.76, -31.65 ] } },
{ "type": "Feature", "properties": { "nombre": "COTELAI", "estilo_id": 18, "link": "22161020", "varones": 659, "mujeres": 664, "personas": 1323 }, "geometry": { "type": "Point", "coordinates": [ -59.58, -27.53 ] } },
{ "type": "Feature", "properties": { "nombre": "COUNTRY CLUB EL CASCO", "estilo_id": 18, "link": "06882020", "varones": 223, "mujeres": 229, "personas": 452 }, "geometry": { "type": "Point", "coordinates": [ -59.08, -34.13 ] } },
{ "type": "Feature", "properties": { "nombre": "COUNTRY CLUB EL RODEO", "estilo_id": 18, "link": "06441010", "varones": 143, "mujeres": 119, "personas": 262 }, "geometry": { "type": "Point", "coordinates": [ -58.14, -35.08 ] } },
{ "type": "Feature", "properties": { "nombre": "COUNTRY LOS MEDANOS", "estilo_id": 18, "link": "06875025", "varones": 31, "mujeres": 30, "personas": 61 }, "geometry": { "type": "Point", "coordinates": [ -62.74, -38.85 ] } },
{ "type": "Feature", "properties": { "nombre": "COYAGUAIMA", "estilo_id": 18, "link": "38049007", "varones": 44, "mujeres": 39, "personas": 83 }, "geometry": { "type": "Point", "coordinates": [ -66.44, -22.77 ] } },
{ "type": "Feature", "properties": { "nombre": "CRESPO", "estilo_id": 18, "link": "30084070", "varones": 9480, "mujeres": 10056, "personas": 19536 }, "geometry": { "type": "Point", "coordinates": [ -60.31, -32.03 ] } },
{ "type": "Feature", "properties": { "nombre": "CRISPI", "estilo_id": 18, "link": "82126060", "varones": 134, "mujeres": 133, "personas": 267 }, "geometry": { "type": "Point", "coordinates": [ -62.04, -31.74 ] } },
{ "type": "Feature", "properties": { "nombre": "CROTTO", "estilo_id": 18, "link": "06798010", "varones": 122, "mujeres": 125, "personas": 247 }, "geometry": { "type": "Point", "coordinates": [ -60.17, -36.58 ] } },
{ "type": "Feature", "properties": { "nombre": "CRUCE CABALLERO", "estilo_id": 18, "link": "54112010", "varones": 213, "mujeres": 195, "personas": 408 }, "geometry": { "type": "Point", "coordinates": [ -53.94, -26.54 ] } },
{ "type": "Feature", "properties": { "nombre": "CRUZ ALTA", "estilo_id": 18, "link": "14063100", "varones": 3496, "mujeres": 3704, "personas": 7200 }, "geometry": { "type": "Point", "coordinates": [ -61.81, -33.01 ] } },
{ "type": "Feature", "properties": { "nombre": "CRUZ CAÑA", "estilo_id": 18, "link": "14133030", "varones": 97, "mujeres": 89, "personas": 186 }, "geometry": { "type": "Point", "coordinates": [ -65.03, -32.28 ] } },
{ "type": "Feature", "properties": { "nombre": "CRUZ DE CAÑA", "estilo_id": 18, "link": "14028040", "varones": 65, "mujeres": 65, "personas": 130 }, "geometry": { "type": "Point", "coordinates": [ -64.94, -31.07 ] } },
{ "type": "Feature", "properties": { "nombre": "CRUZ DE LOS MILAGROS", "estilo_id": 18, "link": "18091010", "varones": 86, "mujeres": 57, "personas": 143 }, "geometry": { "type": "Point", "coordinates": [ -59.01, -28.84 ] } },
{ "type": "Feature", "properties": { "nombre": "CRUZ DE PIEDRA", "estilo_id": 18, "link": "50070030", "varones": 781, "mujeres": 755, "personas": 1536 }, "geometry": { "type": "Point", "coordinates": [ -68.79, -33.03 ] } },
{ "type": "Feature", "properties": { "nombre": "CUADRO BENEGAS", "estilo_id": 18, "link": "50105060", "varones": 631, "mujeres": 622, "personas": 1253 }, "geometry": { "type": "Point", "coordinates": [ -68.44, -34.63 ] } },
{ "type": "Feature", "properties": { "nombre": "CUATRO BOCAS", "estilo_id": 18, "link": "86042020", "varones": 55, "mujeres": 60, "personas": 115 }, "geometry": { "type": "Point", "coordinates": [ -61.89, -28.91 ] } },
{ "type": "Feature", "properties": { "nombre": "CUATRO ESQUINAS", "estilo_id": 18, "link": "82084110", "varones": 110, "mujeres": 64, "personas": 174 }, "geometry": { "type": "Point", "coordinates": [ -60.76, -33.25 ] } },
{ "type": "Feature", "properties": { "nombre": "CUESTA BLANCA", "estilo_id": 18, "link": "14091080", "varones": 278, "mujeres": 232, "personas": 510 }, "geometry": { "type": "Point", "coordinates": [ -64.58, -31.48 ] } },
{ "type": "Feature", "properties": { "nombre": "CULULLU", "estilo_id": 18, "link": "06728020", "varones": 285, "mujeres": 266, "personas": 551 }, "geometry": { "type": "Point", "coordinates": [ -59.36, -34.45 ] } },
{ "type": "Feature", "properties": { "nombre": "CULULU", "estilo_id": 18, "link": "82070020", "varones": 49, "mujeres": 48, "personas": 97 }, "geometry": { "type": "Point", "coordinates": [ -60.93, -31.2 ] } },
{ "type": "Feature", "properties": { "nombre": "CURA MALAL", "estilo_id": 18, "link": "06203030", "varones": 48, "mujeres": 47, "personas": 95 }, "geometry": { "type": "Point", "coordinates": [ -62.1, -37.48 ] } },
{ "type": "Feature", "properties": { "nombre": "CURARU", "estilo_id": 18, "link": "06154030", "varones": 220, "mujeres": 202, "personas": 422 }, "geometry": { "type": "Point", "coordinates": [ -62.19, -35.64 ] } },
{ "type": "Feature", "properties": { "nombre": "CURUPAYTI", "estilo_id": 18, "link": "82091110", "varones": 105, "mujeres": 115, "personas": 220 }, "geometry": { "type": "Point", "coordinates": [ -61.65, -30.4 ] } },
{ "type": "Feature", "properties": { "nombre": "CUSHAMEN CENTRO", "estilo_id": 18, "link": "26014030", "varones": 354, "mujeres": 386, "personas": 740 }, "geometry": { "type": "Point", "coordinates": [ -70.66, -42.18 ] } },
{ "type": "Feature", "properties": { "nombre": "CUSI CUSI", "estilo_id": 18, "link": "38077040", "varones": 109, "mujeres": 134, "personas": 243 }, "geometry": { "type": "Point", "coordinates": [ -66.49, -22.34 ] } },
{ "type": "Feature", "properties": { "nombre": "CUTRAL CO", "estilo_id": 18, "link": "58035040", "varones": 17355, "mujeres": 18110, "personas": 35465 }, "geometry": { "type": "Point", "coordinates": [ -69.24, -38.94 ] } },
{ "type": "Feature", "properties": { "nombre": "DALMACIO VELEZ", "estilo_id": 18, "link": "14161040", "varones": 753, "mujeres": 744, "personas": 1497 }, "geometry": { "type": "Point", "coordinates": [ -63.58, -32.61 ] } },
{ "type": "Feature", "properties": { "nombre": "DAMIAN MAISONAVE", "estilo_id": 18, "link": "42133030", "varones": 148, "mujeres": 152, "personas": 300 }, "geometry": { "type": "Point", "coordinates": [ -64.39, -35.04 ] } },
{ "type": "Feature", "properties": { "nombre": "DARREGUEIRA", "estilo_id": 18, "link": "06651030", "varones": 2663, "mujeres": 2884, "personas": 5547 }, "geometry": { "type": "Point", "coordinates": [ -63.16, -37.69 ] } },
{ "type": "Feature", "properties": { "nombre": "DARWIN", "estilo_id": 18, "link": "62014060", "varones": 584, "mujeres": 564, "personas": 1148 }, "geometry": { "type": "Point", "coordinates": [ -65.74, -39.2 ] } },
{ "type": "Feature", "properties": { "nombre": "DEBARY", "estilo_id": 18, "link": "06616020", "varones": 36, "mujeres": 27, "personas": 63 }, "geometry": { "type": "Point", "coordinates": [ -63.26, -36.34 ] } },
{ "type": "Feature", "properties": { "nombre": "DE LA CANAL", "estilo_id": 18, "link": "06791010", "varones": 29, "mujeres": 28, "personas": 57 }, "geometry": { "type": "Point", "coordinates": [ -59.1, -37.13 ] } },
{ "type": "Feature", "properties": { "nombre": "DE LA GARMA", "estilo_id": 18, "link": "06014020", "varones": 784, "mujeres": 841, "personas": 1625 }, "geometry": { "type": "Point", "coordinates": [ -60.42, -37.96 ] } },
{ "type": "Feature", "properties": { "nombre": "DEL CAMPILLO", "estilo_id": 18, "link": "14035010", "varones": 1684, "mujeres": 1728, "personas": 3412 }, "geometry": { "type": "Point", "coordinates": [ -64.5, -34.38 ] } },
{ "type": "Feature", "properties": { "nombre": "DEL CARRIL", "estilo_id": 18, "link": "06707040", "varones": 619, "mujeres": 651, "personas": 1270 }, "geometry": { "type": "Point", "coordinates": [ -59.52, -35.51 ] } },
{ "type": "Feature", "properties": { "nombre": "DELFIN GALLO", "estilo_id": 18, "link": "90014060", "varones": 4357, "mujeres": 4471, "personas": 8828 }, "geometry": { "type": "Point", "coordinates": [ -65.09, -26.84 ] } },
{ "type": "Feature", "properties": { "nombre": "DELFIN HUERGO", "estilo_id": 18, "link": "06007030", "varones": 6, "mujeres": 8, "personas": 14 }, "geometry": { "type": "Point", "coordinates": [ -63.23, -37.32 ] } },
{ "type": "Feature", "properties": { "nombre": "DEL VALLE", "estilo_id": 18, "link": "06854020", "varones": 450, "mujeres": 449, "personas": 899 }, "geometry": { "type": "Point", "coordinates": [ -60.73, -35.9 ] } },
{ "type": "Feature", "properties": { "nombre": "DESAGUADERO", "estilo_id": 18, "link": "50042010", "varones": 208, "mujeres": 216, "personas": 424 }, "geometry": { "type": "Point", "coordinates": [ -67.16, -33.41 ] } },
{ "type": "Feature", "properties": { "nombre": "DESAGUADERO", "estilo_id": 18, "link": "74056070", "varones": 48, "mujeres": 48, "personas": 96 }, "geometry": { "type": "Point", "coordinates": [ -67.15, -33.4 ] } },
{ "type": "Feature", "properties": { "nombre": "DESIDERIO TELLO", "estilo_id": 18, "link": "46112020", "varones": 363, "mujeres": 370, "personas": 733 }, "geometry": { "type": "Point", "coordinates": [ -66.33, -31.22 ] } },
{ "type": "Feature", "properties": { "nombre": "DESPEÑADEROS", "estilo_id": 18, "link": "14147080", "varones": 2725, "mujeres": 3033, "personas": 5758 }, "geometry": { "type": "Point", "coordinates": [ -64.29, -31.82 ] } },
{ "type": "Feature", "properties": { "nombre": "DESVIO ARIJON", "estilo_id": 18, "link": "82105100", "varones": 471, "mujeres": 475, "personas": 946 }, "geometry": { "type": "Point", "coordinates": [ -60.89, -31.87 ] } },
{ "type": "Feature", "properties": { "nombre": "DEVOTO", "estilo_id": 18, "link": "14140160", "varones": 2947, "mujeres": 3110, "personas": 6057 }, "geometry": { "type": "Point", "coordinates": [ -62.31, -31.4 ] } },
{ "type": "Feature", "properties": { "nombre": "DIADEMA ARGENTINA", "estilo_id": 18, "link": "26021040", "varones": 672, "mujeres": 645, "personas": 1317 }, "geometry": { "type": "Point", "coordinates": [ -67.67, -45.79 ] } },
{ "type": "Feature", "properties": { "nombre": "DIAG .N. -L.YF.-LOS POCITOS-VA.N.ITALIA", "estilo_id": 18, "link": "90105060", "varones": 5572, "mujeres": 5922, "personas": 11494 }, "geometry": { "type": "Point", "coordinates": [ -65.22, -26.78 ] } },
{ "type": "Feature", "properties": { "nombre": "DIAZ", "estilo_id": 18, "link": "82105110", "varones": 867, "mujeres": 854, "personas": 1721 }, "geometry": { "type": "Point", "coordinates": [ -61.09, -32.38 ] } },
{ "type": "Feature", "properties": { "nombre": "DIEGO DE ALVEAR", "estilo_id": 18, "link": "82042100", "varones": 935, "mujeres": 920, "personas": 1855 }, "geometry": { "type": "Point", "coordinates": [ -62.13, -34.37 ] } },
{ "type": "Feature", "properties": { "nombre": "DIEGO DE ROJAS", "estilo_id": 18, "link": "14105060", "varones": 240, "mujeres": 269, "personas": 509 }, "geometry": { "type": "Point", "coordinates": [ -63.34, -31.03 ] } },
{ "type": "Feature", "properties": { "nombre": "CALILEGUA", "estilo_id": 18, "link": "38035040", "varones": 3033, "mujeres": 2964, "personas": 5997 }, "geometry": { "type": "Point", "coordinates": [ -64.77, -23.77 ] } },
{ "type": "Feature", "properties": { "nombre": "CALINGASTA", "estilo_id": 18, "link": "70021020", "varones": 1128, "mujeres": 1070, "personas": 2198 }, "geometry": { "type": "Point", "coordinates": [ -69.43, -31.34 ] } },
{ "type": "Feature", "properties": { "nombre": "CAMILO ALDAO", "estilo_id": 18, "link": "14063030", "varones": 2494, "mujeres": 2703, "personas": 5197 }, "geometry": { "type": "Point", "coordinates": [ -62.1, -33.12 ] } },
{ "type": "Feature", "properties": { "nombre": "CAMINIAGA", "estilo_id": 18, "link": "14154010", "varones": 137, "mujeres": 145, "personas": 282 }, "geometry": { "type": "Point", "coordinates": [ -64.05, -30.07 ] } },
{ "type": "Feature", "properties": { "nombre": "CAMPAMENTO VESPUCIO", "estilo_id": 18, "link": "66056020", "varones": 751, "mujeres": 780, "personas": 1531 }, "geometry": { "type": "Point", "coordinates": [ -63.85, -22.58 ] } },
{ "type": "Feature", "properties": { "nombre": "CAMPANAS", "estilo_id": 18, "link": "46049050", "varones": 451, "mujeres": 441, "personas": 892 }, "geometry": { "type": "Point", "coordinates": [ -67.63, -28.56 ] } },
{ "type": "Feature", "properties": { "nombre": "CAMPICHUELO", "estilo_id": 18, "link": "66056030", "varones": 167, "mujeres": 173, "personas": 340 }, "geometry": { "type": "Point", "coordinates": [ -63.99, -23.11 ] } },
{ "type": "Feature", "properties": { "nombre": "CAMPO ANDINO", "estilo_id": 18, "link": "82063050", "varones": 157, "mujeres": 156, "personas": 313 }, "geometry": { "type": "Point", "coordinates": [ -60.53, -31.24 ] } },
{ "type": "Feature", "properties": { "nombre": "CAMPO DE HERRERA", "estilo_id": 18, "link": "90028020", "varones": 453, "mujeres": 437, "personas": 890 }, "geometry": { "type": "Point", "coordinates": [ -65.35, -27.03 ] } },
{ "type": "Feature", "properties": { "nombre": "CAMPO DURAN", "estilo_id": 18, "link": "66056040", "varones": 329, "mujeres": 291, "personas": 620 }, "geometry": { "type": "Point", "coordinates": [ -63.66, -22.19 ] } },
{ "type": "Feature", "properties": { "nombre": "CAMPO LA CRUZ", "estilo_id": 18, "link": "66161020", "varones": 87, "mujeres": 108, "personas": 195 }, "geometry": { "type": "Point", "coordinates": [ -65.14, -22.43 ] } },
{ "type": "Feature", "properties": { "nombre": "CAMPO LOS ANDES", "estilo_id": 18, "link": "50119020", "varones": 286, "mujeres": 252, "personas": 538 }, "geometry": { "type": "Point", "coordinates": [ -69.18, -33.71 ] } },
{ "type": "Feature", "properties": { "nombre": "CAMPO QUIJANO", "estilo_id": 18, "link": "66147010", "varones": 4298, "mujeres": 4631, "personas": 8929 }, "geometry": { "type": "Point", "coordinates": [ -65.64, -24.91 ] } },
{ "type": "Feature", "properties": { "nombre": "CAMPO RAMON", "estilo_id": 18, "link": "54091020", "varones": 571, "mujeres": 664, "personas": 1235 }, "geometry": { "type": "Point", "coordinates": [ -55.02, -27.45 ] } },
{ "type": "Feature", "properties": { "nombre": "CAMPO SANTO", "estilo_id": 18, "link": "66049010", "varones": 2843, "mujeres": 3025, "personas": 5868 }, "geometry": { "type": "Point", "coordinates": [ -65.1, -24.68 ] } },
{ "type": "Feature", "properties": { "nombre": "CAMPOS DEL VIRREY", "estilo_id": 18, "link": "14147055", "varones": 89, "mujeres": 99, "personas": 188 }, "geometry": { "type": "Point", "coordinates": [ -64.34, -31.59 ] } },
{ "type": "Feature", "properties": { "nombre": "CAMPOS DE ROCA", "estilo_id": 18, "link": "06119045", "varones": 118, "mujeres": 116, "personas": 234 }, "geometry": { "type": "Point", "coordinates": [ -58.09, -35.12 ] } },
{ "type": "Feature", "properties": { "nombre": "CAMPO VIERA", "estilo_id": 18, "link": "54091030", "varones": 3494, "mujeres": 3605, "personas": 7099 }, "geometry": { "type": "Point", "coordinates": [ -55.05, -27.33 ] } },
{ "type": "Feature", "properties": { "nombre": "CANALS", "estilo_id": 18, "link": "14182080", "varones": 4169, "mujeres": 4476, "personas": 8645 }, "geometry": { "type": "Point", "coordinates": [ -62.89, -33.56 ] } },
{ "type": "Feature", "properties": { "nombre": "CANDELARIA", "estilo_id": 18, "link": "74007010", "varones": 1389, "mujeres": 1340, "personas": 2729 }, "geometry": { "type": "Point", "coordinates": [ -65.83, -32.06 ] } },
{ "type": "Feature", "properties": { "nombre": "CANDELARIA", "estilo_id": 18, "link": "54021020", "varones": 6740, "mujeres": 7037, "personas": 13777 }, "geometry": { "type": "Point", "coordinates": [ -55.74, -27.46 ] } },
{ "type": "Feature", "properties": { "nombre": "CANDELARIA SUR", "estilo_id": 18, "link": "14168010", "varones": 57, "mujeres": 58, "personas": 115 }, "geometry": { "type": "Point", "coordinates": [ -63.8, -30.84 ] } },
{ "type": "Feature", "properties": { "nombre": "CANDIOTI", "estilo_id": 18, "link": "82063060", "varones": 452, "mujeres": 436, "personas": 888 }, "geometry": { "type": "Point", "coordinates": [ -60.75, -31.4 ] } },
{ "type": "Feature", "properties": { "nombre": "CANGREJILLOS", "estilo_id": 18, "link": "38112020", "varones": 87, "mujeres": 94, "personas": 181 }, "geometry": { "type": "Point", "coordinates": [ -65.58, -22.42 ] } },
{ "type": "Feature", "properties": { "nombre": "CANTERAS EL SAUCE", "estilo_id": 18, "link": "14021030", "varones": 137, "mujeres": 153, "personas": 290 }, "geometry": { "type": "Point", "coordinates": [ -64.31, -31.09 ] } },
{ "type": "Feature", "properties": { "nombre": "CANTERAS QUILPO", "estilo_id": 18, "link": "14028030", "varones": 113, "mujeres": 103, "personas": 216 }, "geometry": { "type": "Point", "coordinates": [ -64.68, -30.87 ] } },
{ "type": "Feature", "properties": { "nombre": "CAÑADA DEL SAUCE", "estilo_id": 18, "link": "14007030", "varones": 37, "mujeres": 24, "personas": 61 }, "geometry": { "type": "Point", "coordinates": [ -64.64, -32.37 ] } },
{ "type": "Feature", "properties": { "nombre": "CAÑADA DE LUQUE", "estilo_id": 18, "link": "14168020", "varones": 587, "mujeres": 567, "personas": 1154 }, "geometry": { "type": "Point", "coordinates": [ -63.72, -30.74 ] } },
{ "type": "Feature", "properties": { "nombre": "ALDEA SALTO", "estilo_id": 18, "link": "30021030", "varones": 53, "mujeres": 49, "personas": 102 }, "geometry": { "type": "Point", "coordinates": [ -60.55, -31.93 ] } },
{ "type": "Feature", "properties": { "nombre": "ALDEA SAN ANTONIO", "estilo_id": 18, "link": "30056010", "varones": 534, "mujeres": 557, "personas": 1091 }, "geometry": { "type": "Point", "coordinates": [ -58.7, -32.63 ] } },
{ "type": "Feature", "properties": { "nombre": "ALDEA SAN FRANCISCO", "estilo_id": 18, "link": "30021040", "varones": 21, "mujeres": 21, "personas": 42 }, "geometry": { "type": "Point", "coordinates": [ -60.64, -31.96 ] } },
{ "type": "Feature", "properties": { "nombre": "ALDEA SAN ISIDRO(EL CIMARRON)", "estilo_id": 18, "link": "30035020", "varones": 173, "mujeres": 163, "personas": 336 }, "geometry": { "type": "Point", "coordinates": [ -58.98, -30.99 ] } },
{ "type": "Feature", "properties": { "nombre": "ALDEA SAN JUAN", "estilo_id": 18, "link": "30056020", "varones": 96, "mujeres": 83, "personas": 179 }, "geometry": { "type": "Point", "coordinates": [ -58.78, -32.7 ] } },
{ "type": "Feature", "properties": { "nombre": "ALDEA SAN RAFAEL", "estilo_id": 18, "link": "30084020", "varones": 70, "mujeres": 74, "personas": 144 }, "geometry": { "type": "Point", "coordinates": [ -60.26, -31.96 ] } },
{ "type": "Feature", "properties": { "nombre": "ALDEA SANTA MARIA", "estilo_id": 18, "link": "14182010", "varones": 104, "mujeres": 97, "personas": 201 }, "geometry": { "type": "Point", "coordinates": [ -62.91, -33.7 ] } },
{ "type": "Feature", "properties": { "nombre": "ALDEA SANTA MARIA", "estilo_id": 18, "link": "30084030", "varones": 150, "mujeres": 152, "personas": 302 }, "geometry": { "type": "Point", "coordinates": [ -60.01, -31.61 ] } },
{ "type": "Feature", "properties": { "nombre": "ALDEA SANTA ROSA", "estilo_id": 18, "link": "30084040", "varones": 36, "mujeres": 35, "personas": 71 }, "geometry": { "type": "Point", "coordinates": [ -60.24, -32.02 ] } },
{ "type": "Feature", "properties": { "nombre": "ALDEA SPATZENKUTTER", "estilo_id": 18, "link": "30021050", "varones": 182, "mujeres": 173, "personas": 355 }, "geometry": { "type": "Point", "coordinates": [ -60.58, -31.95 ] } },
{ "type": "Feature", "properties": { "nombre": "ALDEA VALLE MARIA", "estilo_id": 18, "link": "30021060", "varones": 1087, "mujeres": 1062, "personas": 2149 }, "geometry": { "type": "Point", "coordinates": [ -60.59, -31.99 ] } },
{ "type": "Feature", "properties": { "nombre": "ALDERETES", "estilo_id": 18, "link": "90014010", "varones": 20645, "mujeres": 21302, "personas": 41947 }, "geometry": { "type": "Point", "coordinates": [ -65.14, -26.82 ] } },
{ "type": "Feature", "properties": { "nombre": "ALEJANDRA", "estilo_id": 18, "link": "82098010", "varones": 1444, "mujeres": 1518, "personas": 2962 }, "geometry": { "type": "Point", "coordinates": [ -59.83, -29.91 ] } },
{ "type": "Feature", "properties": { "nombre": "ALEJANDRO PETION", "estilo_id": 18, "link": "06134010", "varones": 1431, "mujeres": 1328, "personas": 2759 }, "geometry": { "type": "Point", "coordinates": [ -58.67, -34.98 ] } },
{ "type": "Feature", "properties": { "nombre": "ALEJANDRO ROCA", "estilo_id": 18, "link": "14056010", "varones": 2590, "mujeres": 2708, "personas": 5298 }, "geometry": { "type": "Point", "coordinates": [ -63.72, -33.36 ] } },
{ "type": "Feature", "properties": { "nombre": "ALEJO LEDESMA", "estilo_id": 18, "link": "14063010", "varones": 1577, "mujeres": 1722, "personas": 3299 }, "geometry": { "type": "Point", "coordinates": [ -62.63, -33.61 ] } },
{ "type": "Feature", "properties": { "nombre": "ALFREDO DEMARCHI", "estilo_id": 18, "link": "06588010", "varones": 903, "mujeres": 950, "personas": 1853 }, "geometry": { "type": "Point", "coordinates": [ -61.41, -35.29 ] } },
{ "type": "Feature", "properties": { "nombre": "ALHUAMPA", "estilo_id": 18, "link": "86119020", "varones": 250, "mujeres": 221, "personas": 471 }, "geometry": { "type": "Point", "coordinates": [ -62.55, -27.13 ] } },
{ "type": "Feature", "properties": { "nombre": "ALICIA", "estilo_id": 18, "link": "14140010", "varones": 1614, "mujeres": 1691, "personas": 3305 }, "geometry": { "type": "Point", "coordinates": [ -62.47, -31.94 ] } },
{ "type": "Feature", "properties": { "nombre": "ALICIA ALTA", "estilo_id": 18, "link": "54119020", "varones": 129, "mujeres": 148, "personas": 277 }, "geometry": { "type": "Point", "coordinates": [ -54.37, -27.38 ] } },
{ "type": "Feature", "properties": { "nombre": "ALICIA BAJA", "estilo_id": 18, "link": "54119025", "varones": 109, "mujeres": 110, "personas": 219 }, "geometry": { "type": "Point", "coordinates": [ -54.36, -27.43 ] } },
{ "type": "Feature", "properties": { "nombre": "ALIJILAN", "estilo_id": 18, "link": "10098010", "varones": 725, "mujeres": 671, "personas": 1396 }, "geometry": { "type": "Point", "coordinates": [ -65.49, -28.18 ] } },
{ "type": "Feature", "properties": { "nombre": "ALLEN", "estilo_id": 18, "link": "62042010", "varones": 11161, "mujeres": 11698, "personas": 22859 }, "geometry": { "type": "Point", "coordinates": [ -67.83, -38.98 ] } },
{ "type": "Feature", "properties": { "nombre": "ALMAFUERTE", "estilo_id": 18, "link": "14161010", "varones": 5556, "mujeres": 5866, "personas": 11422 }, "geometry": { "type": "Point", "coordinates": [ -64.25, -32.19 ] } },
{ "type": "Feature", "properties": { "nombre": "ALMAFUERTE", "estilo_id": 18, "link": "54070010", "varones": 158, "mujeres": 139, "personas": 297 }, "geometry": { "type": "Point", "coordinates": [ -55.4, -27.51 ] } },
{ "type": "Feature", "properties": { "nombre": "ALPACHIRI", "estilo_id": 18, "link": "90021010", "varones": 932, "mujeres": 906, "personas": 1838 }, "geometry": { "type": "Point", "coordinates": [ -65.76, -27.34 ] } },
{ "type": "Feature", "properties": { "nombre": "ALPACHIRI", "estilo_id": 18, "link": "42070010", "varones": 836, "mujeres": 923, "personas": 1759 }, "geometry": { "type": "Point", "coordinates": [ -63.77, -37.38 ] } },
{ "type": "Feature", "properties": { "nombre": "ALPA CORRAL", "estilo_id": 18, "link": "14098040", "varones": 420, "mujeres": 392, "personas": 812 }, "geometry": { "type": "Point", "coordinates": [ -64.72, -32.69 ] } },