{
"type": "FeatureCollection",
"crs": { "type": "name", "properties": { "name": "urn:ogc:def:crs:OGC:1.3:CRS84" } },
"features": [
{ "type": "Feature", "properties": { "id": 51, "nombre": "Gervasini Neumáticos", "direccion": "Hipolito Yrigoyen 2028", "lat": -45.8781904, "lon": -67.5063743, "localidad": "Comodoro Rivadavia", "provincia": "Chubut", "zona": "Chubut" }, "geometry": { "type": "Point", "coordinates": [ -67.506374, -45.87819 ] } },
{ "type": "Feature", "properties": { "id": 85, "nombre": "Neumáticos Myd", "direccion": "12 de Octubre 1768", "lat": -41.1332527, "lon": -71.2860313, "localidad": "Bariloche", "provincia": "Río Negro", "zona": "Río Negro" }, "geometry": { "type": "Point", "coordinates": [ -71.286031, -41.133253 ] } },
{ "type": "Feature", "properties": { "id": 69, "nombre": "Monteoliva Neumáticos", "direccion": "Hipolito Yrigoyen 2028", "lat": -40.7945901, "lon": -62.9922603, "localidad": "Viedma", "provincia": "Rio Negro", "zona": "Rio Negro" }, "geometry": { "type": "Point", "coordinates": [ -62.99226, -40.79459 ] } },
{ "type": "Feature", "properties": { "id": 84, "nombre": "Neumáticos MyD", "direccion": "Av. Cacique Currihuinca 856", "lat": -40.1551248, "lon": -71.342747, "localidad": "San Martín de los Andes", "provincia": "Neuquen", "zona": "Neuquen" }, "geometry": { "type": "Point", "coordinates": [ -71.342747, -40.155125 ] } },
{ "type": "Feature", "properties": { "id": 78, "nombre": "Neumáticos El Valle", "direccion": "Alsina 750", "lat": -39.0344464, "lon": -67.5762396, "localidad": "Gral. Roca", "provincia": "Río Negro", "zona": "Río Negro" }, "geometry": { "type": "Point", "coordinates": [ -67.57624, -39.034446 ] } },
{ "type": "Feature", "properties": { "id": 50, "nombre": "Gervasini Neumáticos", "direccion": "Perticone 306 Y Chubut", "lat": -38.9596822, "lon": -68.0548955, "localidad": "Neuquen", "provincia": "Neuquen", "zona": "Neuquen" }, "geometry": { "type": "Point", "coordinates": [ -68.054896, -38.959682 ] } },
{ "type": "Feature", "properties": { "id": 37, "nombre": "El Condor Automotores", "direccion": "Gdor. Elordy Y Mayor Garayta", "lat": -38.907364, "lon": -70.0576974, "localidad": "Zapala", "provincia": "Neuquen", "zona": "Neuquen" }, "geometry": { "type": "Point", "coordinates": [ -70.057697, -38.907364 ] } },
{ "type": "Feature", "properties": { "id": 124, "nombre": "Vulcamoia", "direccion": "Av. Colón 570", "lat": -38.7241371, "lon": -62.2734364, "localidad": "Bahía Blanca", "provincia": "Buenos Aires", "zona": "Buenos Aires" }, "geometry": { "type": "Point", "coordinates": [ -62.273436, -38.724137 ] } },
{ "type": "Feature", "properties": { "id": 126, "nombre": "Vulcatres S.R.L.", "direccion": "Av. Rivadavia 662", "lat": -38.3819492, "lon": -60.2819057, "localidad": "Tres Arroyos", "provincia": "Buenos Aires", "zona": "Buenos Aires" }, "geometry": { "type": "Point", "coordinates": [ -60.281906, -38.381949 ] } },
{ "type": "Feature", "properties": { "id": 123, "nombre": "Vulcamoia", "direccion": "Av. Independencia 3122", "lat": -38.0078482, "lon": -57.5621039, "localidad": "Mar del Plata", "provincia": "Buenos Aires", "zona": "Buenos Aires" }, "geometry": { "type": "Point", "coordinates": [ -57.562104, -38.007848 ] } },
{ "type": "Feature", "properties": { "id": 120, "nombre": "Todo Neumático S.R.L.", "direccion": "Av. Jara 1105", "lat": -37.9823761, "lon": -57.5672438, "localidad": "Mar del Plata", "provincia": "Buenos Aires", "zona": "Buenos Aires" }, "geometry": { "type": "Point", "coordinates": [ -57.567244, -37.982376 ] } },
{ "type": "Feature", "properties": { "id": 20, "nombre": "Autovia 2 Neumáticos - Centro de Camiones", "direccion": "Monseñor Zabala 146", "lat": -37.9660951, "lon": -57.5776619, "localidad": "Mar del Plata", "provincia": "Buenos Aires", "zona": "Buenos Aires" }, "geometry": { "type": "Point", "coordinates": [ -57.577662, -37.966095 ] } },
{ "type": "Feature", "properties": { "id": 13, "nombre": "Autocentro Morala", "direccion": "Alsina 200", "lat": -37.6036218, "lon": -62.411036, "localidad": "Pigue", "provincia": "Buenos Aires", "zona": "Buenos Aires" }, "geometry": { "type": "Point", "coordinates": [ -62.411036, -37.603622 ] } },
{ "type": "Feature", "properties": { "id": 38, "nombre": "Eligom S.A.", "direccion": "Av. Marconi 1466", "lat": -37.3177461, "lon": -59.1261274, "localidad": "Tandil", "provincia": "Buenos Aires", "zona": "Buenos Aires" }, "geometry": { "type": "Point", "coordinates": [ -59.126127, -37.317746 ] } },
{ "type": "Feature", "properties": { "id": 57, "nombre": "Grupo San Juan Olavarria", "direccion": "Av. del Valle 3728", "lat": -36.9042051, "lon": -60.3198601, "localidad": "Olavarria", "provincia": "Buenos Aires", "zona": "Buenos Aires" }, "geometry": { "type": "Point", "coordinates": [ -60.31986, -36.904205 ] } },
{ "type": "Feature", "properties": { "id": 14, "nombre": "Autocentro Morala", "direccion": "Avenida Spinetto 1075", "lat": -36.6043189, "lon": -64.2811188, "localidad": "Santa Rosa", "provincia": "La Pampa", "zona": "La Pampa" }, "geometry": { "type": "Point", "coordinates": [ -64.281119, -36.604319 ] } },
{ "type": "Feature", "properties": { "id": 2, "nombre": "Atilio Bottazzi", "direccion": "Av. Mitre 2772", "lat": -35.5304256, "lon": -61.0147609, "localidad": "9 de Julio", "provincia": "Buenos Aires", "zona": "Buenos Aires" }, "geometry": { "type": "Point", "coordinates": [ -61.014761, -35.530426 ] } },
{ "type": "Feature", "properties": { "id": 27, "nombre": "Carpro", "direccion": "Av. San Martín 540", "lat": -35.4715422, "lon": -69.5855304, "localidad": "Malargue", "provincia": "Mendoza", "zona": "Mendoza" }, "geometry": { "type": "Point", "coordinates": [ -69.58553, -35.471542 ] } },
{ "type": "Feature", "properties": { "id": 81, "nombre": "Neumáticos Juan", "direccion": "Plaza Rocha N° 72", "lat": -34.9208742, "lon": -57.9415799, "localidad": "La Plata", "provincia": "Buenos Aires", "zona": "Buenos Aires" }, "geometry": { "type": "Point", "coordinates": [ -57.94158, -34.920874 ] } },
{ "type": "Feature", "properties": { "id": 98, "nombre": "Neumáticos Rosmi", "direccion": "Av. 13 Nº 649 esquina 525bis", "lat": -34.9011126, "lon": -57.982391, "localidad": "La Plata", "provincia": "Buenos Aires", "zona": "Buenos Aires" }, "geometry": { "type": "Point", "coordinates": [ -57.982391, -34.901113 ] } },
{ "type": "Feature", "properties": { "id": 26, "nombre": "Bull Vial", "direccion": "Ruta de la Tradición 4020", "lat": -34.7723104, "lon": -58.4696712, "localidad": "9 de Abril", "provincia": "Buenos Aires", "zona": "Gran Buenos Aires" }, "geometry": { "type": "Point", "coordinates": [ -58.469671, -34.77231 ] } },
{ "type": "Feature", "properties": { "id": 6, "nombre": "Autocentro F. Camoia", "direccion": "Av. H. Yrigoyen 7326", "lat": -34.7403666, "lon": -58.3984106, "localidad": "Banfield", "provincia": "Buenos Aires", "zona": "Gran Buenos Aires" }, "geometry": { "type": "Point", "coordinates": [ -58.398411, -34.740367 ] } },
{ "type": "Feature", "properties": { "id": 54, "nombre": "Gomería El Cruce Quilmes", "direccion": "12 de Octubre 1452", "lat": -34.7342029, "lon": -58.2730188, "localidad": "Quilmes Oeste", "provincia": "Buenos Aires", "zona": "Gran Buenos Aires" }, "geometry": { "type": "Point", "coordinates": [ -58.273019, -34.734203 ] } },
{ "type": "Feature", "properties": { "id": 80, "nombre": "Neumáticos Gardenal", "direccion": "Camino Gral. Belgrano 341", "lat": -34.7310622, "lon": -58.3288001, "localidad": "Quilmes Oeste", "provincia": "Buenos Aires", "zona": "Gran Buenos Aires" }, "geometry": { "type": "Point", "coordinates": [ -58.3288, -34.731062 ] } },
{ "type": "Feature", "properties": { "id": 75, "nombre": "Neumáticos CAB", "direccion": "Velez Sarfield 945", "lat": -34.6889965, "lon": -58.4965822, "localidad": "Villa Madero", "provincia": "Buenos Aires", "zona": "Gran Buenos Aires" }, "geometry": { "type": "Point", "coordinates": [ -58.496582, -34.688997 ] } },
{ "type": "Feature", "properties": { "id": 125, "nombre": "Vulcamoia", "direccion": "Hipólito Yrigoyen 790", "lat": -34.666429, "lon": -58.378508, "localidad": "Avellaneda", "provincia": "Buenos Aires", "zona": "Gran Buenos Aires" }, "geometry": { "type": "Point", "coordinates": [ -58.378508, -34.666429 ] } },
{ "type": "Feature", "properties": { "id": 94, "nombre": "Neumáticos Rosmi", "direccion": "Av. Rivadavia 24990", "lat": -34.665012, "lon": -58.6924187, "localidad": "Merlo", "provincia": "Buenos Aires", "zona": "Gran Buenos Aires" }, "geometry": { "type": "Point", "coordinates": [ -58.692419, -34.665012 ] } },
{ "type": "Feature", "properties": { "id": 30, "nombre": "Coscollá Express", "direccion": "Av. Eva Perón 5982", "lat": -34.6642462, "lon": -58.4899023, "localidad": "Mataderos", "provincia": "Capital Federal", "zona": "Capital Federal" }, "geometry": { "type": "Point", "coordinates": [ -58.489902, -34.664246 ] } },
{ "type": "Feature", "properties": { "id": 29, "nombre": "Coscolla Neumáticos", "direccion": "Av. Eva Perón 5983\/87", "lat": -34.664173, "lon": -58.4898227, "localidad": "Mataderos", "provincia": "Capital Federal", "zona": "Capital Federal" }, "geometry": { "type": "Point", "coordinates": [ -58.489823, -34.664173 ] } },
{ "type": "Feature", "properties": { "id": 28, "nombre": "Cedegas", "direccion": "Av. del Barco Centenera 3192", "lat": -34.6527816, "lon": -58.4216285, "localidad": "Pompeya", "provincia": "Capital Federal", "zona": "Capital Federal" }, "geometry": { "type": "Point", "coordinates": [ -58.421628, -34.652782 ] } },
{ "type": "Feature", "properties": { "id": 82, "nombre": "Neumáticos Lopez", "direccion": "Av. Díaz Vélez 314", "lat": -34.6439631, "lon": -58.5436033, "localidad": "Ciudadela", "provincia": "Buenos Aires", "zona": "Gran Buenos Aires" }, "geometry": { "type": "Point", "coordinates": [ -58.543603, -34.643963 ] } },
{ "type": "Feature", "properties": { "id": 92, "nombre": "Neumáticos Rosmi", "direccion": "Av. Rivadavia 14812", "lat": -34.6425059, "lon": -58.5762339, "localidad": "Ramos Mejia", "provincia": "Buenos Aires", "zona": "Gran Buenos Aires" }, "geometry": { "type": "Point", "coordinates": [ -58.576234, -34.642506 ] } },
{ "type": "Feature", "properties": { "id": 90, "nombre": "Neumáticos Rosmi", "direccion": "Av. Rivadavia 10002", "lat": -34.638348, "lon": -58.504652, "localidad": "Villa Luro", "provincia": "Capital Federal", "zona": "Capital Federal" }, "geometry": { "type": "Point", "coordinates": [ -58.504652, -34.638348 ] } },
{ "type": "Feature", "properties": { "id": 10, "nombre": "Autocentro Grupo San Juan", "direccion": "Zavaleta 130", "lat": -34.638239, "lon": -58.4035226, "localidad": "Parque Patricios", "provincia": "Capital Federal", "zona": "Capital Federal" }, "geometry": { "type": "Point", "coordinates": [ -58.403523, -34.638239 ] } },
{ "type": "Feature", "properties": { "id": 95, "nombre": "Neumáticos Rosmi", "direccion": "Pte. Perón 3051", "lat": -34.6352631, "lon": -58.6050451, "localidad": "Haedo", "provincia": "Buenos Aires", "zona": "Gran Buenos Aires" }, "geometry": { "type": "Point", "coordinates": [ -58.605045, -34.635263 ] } },
{ "type": "Feature", "properties": { "id": 112, "nombre": "San Juan y Solís", "direccion": "Juan B Justo 9165", "lat": -34.633043, "lon": -58.518127, "localidad": "Liniers", "provincia": "Capital Federal", "zona": "Capital Federal" }, "geometry": { "type": "Point", "coordinates": [ -58.518127, -34.633043 ] } },
{ "type": "Feature", "properties": { "id": 17, "nombre": "Autocentro Pérez Rodríguez", "direccion": "Av. J.B. Alberdi 1823", "lat": -34.628645, "lon": -58.454345, "localidad": "Flores", "provincia": "Capital Federal", "zona": "Capital Federal" }, "geometry": { "type": "Point", "coordinates": [ -58.454345, -34.628645 ] } },
{ "type": "Feature", "properties": { "id": 16, "nombre": "Autocentro Pérez Rodríguez", "direccion": "Av. J.B. Alberdi 299", "lat": -34.6229044, "lon": -58.4320008, "localidad": "Caballito", "provincia": "Capital Federal", "zona": "Capital Federal" }, "geometry": { "type": "Point", "coordinates": [ -58.432001, -34.622904 ] } },
{ "type": "Feature", "properties": { "id": 18, "nombre": "Autocentro San Juan y Solís", "direccion": "Av. San Juan 1733\/39", "lat": -34.6226484, "lon": -58.3904541, "localidad": "San Cristóbal", "provincia": "Capital Federal", "zona": "Capital Federal" }, "geometry": { "type": "Point", "coordinates": [ -58.390454, -34.622648 ] } },
{ "type": "Feature", "properties": { "id": 91, "nombre": "Neumáticos Rosmi", "direccion": "Av.. Córdoba 3682", "lat": -34.5978864, "lon": -58.418605, "localidad": "Palermo", "provincia": "Capital Federal", "zona": "Capital Federal" }, "geometry": { "type": "Point", "coordinates": [ -58.418605, -34.597886 ] } },
{ "type": "Feature", "properties": { "id": 93, "nombre": "Neumáticos Rosmi", "direccion": "Av. Juan B. Justo 3005", "lat": -34.597831, "lon": -58.448972, "localidad": "Villa Crespo", "provincia": "Capital Federal", "zona": "Capital Federal" }, "geometry": { "type": "Point", "coordinates": [ -58.448972, -34.597831 ] } },
{ "type": "Feature", "properties": { "id": 3, "nombre": "Atilio Bottazzi", "direccion": "Benito de Miguel 252", "lat": -34.595389, "lon": -60.9512663, "localidad": "Junín", "provincia": "Buenos Aires", "zona": "Buenos Aires" }, "geometry": { "type": "Point", "coordinates": [ -60.951266, -34.595389 ] } },
{ "type": "Feature", "properties": { "id": 34, "nombre": "Diego Neumáticos", "direccion": "Guido Spano 2096", "lat": -34.5938171, "lon": -58.5850357, "localidad": "Martín Coronado", "provincia": "Buenos Aires", "zona": "Gran Buenos Aires" }, "geometry": { "type": "Point", "coordinates": [ -58.585036, -34.593817 ] } },
{ "type": "Feature", "properties": { "id": 89, "nombre": "Neumáticos Rosmi", "direccion": "Av. San Martín 512", "lat": -34.5860401, "lon": -58.5275688, "localidad": "San Martín", "provincia": "Buenos Aires", "zona": "Gran Buenos Aires" }, "geometry": { "type": "Point", "coordinates": [ -58.527569, -34.58604 ] } },
{ "type": "Feature", "properties": { "id": 4, "nombre": "Auto Ok Zado", "direccion": "Av. Constituyentes 5020", "lat": -34.5785294, "lon": -58.4965214, "localidad": "Villa Urquiza", "provincia": "Capital Federal", "zona": "Capital Federal" }, "geometry": { "type": "Point", "coordinates": [ -58.496521, -34.578529 ] } },
{ "type": "Feature", "properties": { "id": 122, "nombre": "Vulcamoia", "direccion": "San Martín 3256", "lat": -34.5530219, "lon": -58.5609257, "localidad": "Balcarce", "provincia": "Buenos Aires", "zona": "Buenos Aires" }, "geometry": { "type": "Point", "coordinates": [ -58.560926, -34.553022 ] } },
{ "type": "Feature", "properties": { "id": 21, "nombre": "Ballester Neumáticos", "direccion": "Alvear 2174", "lat": -34.545709, "lon": -58.5494432, "localidad": "Villa Ballester", "provincia": "Buenos Aires", "zona": "Gran Buenos Aires" }, "geometry": { "type": "Point", "coordinates": [ -58.549443, -34.545709 ] } },
{ "type": "Feature", "properties": { "id": 67, "nombre": "Lubrirap", "direccion": "Av. Cabildo N° 4453\/65", "lat": -34.5432787, "lon": -58.472243, "localidad": "Nunez", "provincia": "Capital Federal", "zona": "Capital Federal" }, "geometry": { "type": "Point", "coordinates": [ -58.472243, -34.543279 ] } },
{ "type": "Feature", "properties": { "id": 79, "nombre": "Neumáticos Fleming", "direccion": "Av. Fleming 2225", "lat": -34.5006175, "lon": -58.5182849, "localidad": "Martínez", "provincia": "Buenos Aires", "zona": "Gran Buenos Aires" }, "geometry": { "type": "Point", "coordinates": [ -58.518285, -34.500617 ] } },
{ "type": "Feature", "properties": { "id": 86, "nombre": "Neumáticos NF", "direccion": "Av. Fleming 951", "lat": -34.491022, "lon": -58.5240655, "localidad": "Martínez", "provincia": "Buenos Aires", "zona": "Gran Buenos Aires" }, "geometry": { "type": "Point", "coordinates": [ -58.524065, -34.491022 ] } },
{ "type": "Feature", "properties": { "id": 96, "nombre": "Neumáticos Rosmi", "direccion": "Av. Santa Fe 935", "lat": -34.4814628, "lon": -58.506278, "localidad": "Acassuso", "provincia": "Buenos Aires", "zona": "Gran Buenos Aires" }, "geometry": { "type": "Point", "coordinates": [ -58.506278, -34.481463 ] } },
{ "type": "Feature", "properties": { "id": 87, "nombre": "Neumáticos Pilar SRL", "direccion": "12 de Octubre 942", "lat": -34.4782748, "lon": -58.8789601, "localidad": "Pilar", "provincia": "Buenos Aires", "zona": "Gran Buenos Aires" }, "geometry": { "type": "Point", "coordinates": [ -58.87896, -34.478275 ] } },
{ "type": "Feature", "properties": { "id": 39, "nombre": "Escobar Neumáticos", "direccion": "Av. 25 de Mayo 930", "lat": -34.352218, "lon": -58.79359, "localidad": "Escobar", "provincia": "Buenos Aires", "zona": "Gran Buenos Aires" }, "geometry": { "type": "Point", "coordinates": [ -58.79359, -34.352218 ] } },
{ "type": "Feature", "properties": { "id": 1, "nombre": "Atilio Bottazzi", "direccion": "Av. Tormey 692", "lat": -34.2045299, "lon": -60.7304285, "localidad": "Rojas", "provincia": "Buenos Aires", "zona": "Buenos Aires" }, "geometry": { "type": "Point", "coordinates": [ -60.730429, -34.20453 ] } },
{ "type": "Feature", "properties": { "id": 45, "nombre": "Faldani Neumáticos", "direccion": "Calle 9 N°719", "lat": -33.904429, "lon": -61.1052982, "localidad": "Colon", "provincia": "Buenos Aires", "zona": "Buenos Aires" }, "geometry": { "type": "Point", "coordinates": [ -61.105298, -33.904429 ] } },
{ "type": "Feature", "properties": { "id": 42, "nombre": "Faldani Neumáticos", "direccion": "Bv. Alsina 1220", "lat": -33.887287, "lon": -60.5773918, "localidad": "Pergamino", "provincia": "Buenos Aires", "zona": "Buenos Aires" }, "geometry": { "type": "Point", "coordinates": [ -60.577392, -33.887287 ] } },
{ "type": "Feature", "properties": { "id": 44, "nombre": "Faldani Neumáticos", "direccion": "Av. Mitre 100", "lat": -33.7501809, "lon": -61.9658977, "localidad": "Venado Tuerto", "provincia": "Santa Fe", "zona": "Santa Fe" }, "geometry": { "type": "Point", "coordinates": [ -61.965898, -33.750181 ] } },
{ "type": "Feature", "properties": { "id": 41, "nombre": "Faldani Neumáticos", "direccion": "12 de Octubre Y Sáenz Peña", "lat": -33.7429086, "lon": -61.9835565, "localidad": "Venado Tuerto", "provincia": "Santa Fe", "zona": "Santa Fe" }, "geometry": { "type": "Point", "coordinates": [ -61.983556, -33.742909 ] } },
{ "type": "Feature", "properties": { "id": 35, "nombre": "Digiuni", "direccion": "Av. 25 de Mayo 1514", "lat": -33.4564398, "lon": -61.4966356, "localidad": "Firmat", "provincia": "Santa Fe", "zona": "Santa Fe" }, "geometry": { "type": "Point", "coordinates": [ -61.496636, -33.45644 ] } },
{ "type": "Feature", "properties": { "id": 60, "nombre": "Grupo San Juan S.A.", "direccion": "Av. Savio 500 (Esq. San Lorenzo)", "lat": -33.3444014, "lon": -60.210752, "localidad": "San Nicolás", "provincia": "Buenos Aires", "zona": "Buenos Aires" }, "geometry": { "type": "Point", "coordinates": [ -60.210752, -33.344401 ] } },
{ "type": "Feature", "properties": { "id": 19, "nombre": "Autocentro San Luis", "direccion": "Presidente Peron 888", "lat": -33.2990303, "lon": -66.327741, "localidad": "San Luis", "provincia": "San Luis", "zona": "San Luis" }, "geometry": { "type": "Point", "coordinates": [ -66.327741, -33.29903 ] } },
{ "type": "Feature", "properties": { "id": 105, "nombre": "Pazzia Neumáticos", "direccion": "Presidente Perón N° 888", "lat": -33.2990303, "lon": -66.327741, "localidad": "San Luis", "provincia": "San Luis", "zona": "San Luis" }, "geometry": { "type": "Point", "coordinates": [ -66.327741, -33.29903 ] } },
{ "type": "Feature", "properties": { "id": 46, "nombre": "Faldani Neumáticos", "direccion": "Gral. Paz 1227", "lat": -33.1292572, "lon": -64.3489661, "localidad": "Rio Cuarto", "provincia": "Córdoba", "zona": "Córdoba" }, "geometry": { "type": "Point", "coordinates": [ -64.348966, -33.129257 ] } },
{ "type": "Feature", "properties": { "id": 76, "nombre": "Neumáticos Cimini", "direccion": "9 de Julio 1437", "lat": -33.1067209, "lon": -61.7071546, "localidad": "San Jose de la Esquina", "provincia": "Santa Fe", "zona": "Santa Fe" }, "geometry": { "type": "Point", "coordinates": [ -61.707155, -33.106721 ] } },
{ "type": "Feature", "properties": { "id": 32, "nombre": "Daniel Girala", "direccion": "Av. Lavalle 951", "lat": -33.069214, "lon": -68.4716031, "localidad": "San Martín", "provincia": "Mendoza", "zona": "Mendoza" }, "geometry": { "type": "Point", "coordinates": [ -68.471603, -33.069214 ] } },
{ "type": "Feature", "properties": { "id": 77, "nombre": "Neumáticos Dotta", "direccion": "Buenos Aires 3790", "lat": -33.0538839, "lon": -61.1835568, "localidad": "Casilda", "provincia": "Santa Fe", "zona": "Santa Fe" }, "geometry": { "type": "Point", "coordinates": [ -61.183557, -33.053884 ] } },
{ "type": "Feature", "properties": { "id": 113, "nombre": "San Juan y Solís S.A.", "direccion": "Bv. Segui 3247", "lat": -32.9739943, "lon": -60.6759099, "localidad": "Rosario", "provincia": "Santa Fe", "zona": "Santa Fe" }, "geometry": { "type": "Point", "coordinates": [ -60.67591, -32.973994 ] } },
{ "type": "Feature", "properties": { "id": 53, "nombre": "Gomeria Mitre", "direccion": "Bv Oroño 2935", "lat": -32.968835, "lon": -60.659296, "localidad": "Rosario", "provincia": "Santa Fe", "zona": "Santa Fe" }, "geometry": { "type": "Point", "coordinates": [ -60.659296, -32.968835 ] } },
{ "type": "Feature", "properties": { "id": 64, "nombre": "Lesgart", "direccion": "Av. Pellegrini 6624", "lat": -32.94829, "lon": -60.711358, "localidad": "Rosario", "provincia": "Santa Fe", "zona": "Santa Fe" }, "geometry": { "type": "Point", "coordinates": [ -60.711358, -32.94829 ] } },
{ "type": "Feature", "properties": { "id": 104, "nombre": "Panamericana Sur", "direccion": "Av. San Martín Sur 1823", "lat": -32.942724, "lon": -68.850883, "localidad": "Godoy Cruz", "provincia": "Mendoza", "zona": "Mendoza" }, "geometry": { "type": "Point", "coordinates": [ -68.850883, -32.942724 ] } },
{ "type": "Feature", "properties": { "id": 47, "nombre": "Faldani Neumáticos", "direccion": "Santa Fe 4070", "lat": -32.9377505, "lon": -60.6783327, "localidad": "Rosario", "provincia": "Santa Fe", "zona": "Santa Fe" }, "geometry": { "type": "Point", "coordinates": [ -60.678333, -32.937751 ] } },
{ "type": "Feature", "properties": { "id": 110, "nombre": "Pronel", "direccion": "Salta 3089 Y Francia", "lat": -32.9345068, "lon": -60.6638841, "localidad": "Rosario", "provincia": "Santa Fe", "zona": "Santa Fe" }, "geometry": { "type": "Point", "coordinates": [ -60.663884, -32.934507 ] } },
{ "type": "Feature", "properties": { "id": 52, "nombre": "Girala Neúmaticos", "direccion": "Av. San Martín Sur 755", "lat": -32.9327667, "lon": -68.8499857, "localidad": "Godoy Cruz", "provincia": "Mendoza", "zona": "Mendoza" }, "geometry": { "type": "Point", "coordinates": [ -68.849986, -32.932767 ] } },
{ "type": "Feature", "properties": { "id": 70, "nombre": "Moscato Neumáticos", "direccion": "Bv. Avellaneda esquina Almafuerte", "lat": -32.9170236, "lon": -60.6736433, "localidad": "Rosario", "provincia": "Santa Fe", "zona": "Santa Fe" }, "geometry": { "type": "Point", "coordinates": [ -60.673643, -32.917024 ] } },
{ "type": "Feature", "properties": { "id": 59, "nombre": "Grupo San Juan S.A.", "direccion": "Catamarca 383", "lat": -32.9062786, "lon": -60.9044513, "localidad": "Roldan", "provincia": "Santa Fe", "zona": "Santa Fe" }, "geometry": { "type": "Point", "coordinates": [ -60.904451, -32.906279 ] } },
{ "type": "Feature", "properties": { "id": 33, "nombre": "Daniel Girala", "direccion": "Carril Godoy Cruz 2879 (esq. Sarmiento), ", "lat": -32.8924873, "lon": -68.800224, "localidad": "Guaymallen", "provincia": "Mendoza", "zona": "Mendoza" }, "geometry": { "type": "Point", "coordinates": [ -68.800224, -32.892487 ] } },
{ "type": "Feature", "properties": { "id": 68, "nombre": "Luis Gallesio", "direccion": "Av. San Lorenzo 1771", "lat": -32.813885, "lon": -60.717236, "localidad": "Capitan Bermúdez", "provincia": "Santa Fe", "zona": "Santa Fe" }, "geometry": { "type": "Point", "coordinates": [ -60.717236, -32.813885 ] } },
{ "type": "Feature", "properties": { "id": 15, "nombre": "Autocentro Pijuan", "direccion": "Ruta 9 N° 785", "lat": -32.8109354, "lon": -61.3909118, "localidad": "Canada de Gómez", "provincia": "Santa Fe", "zona": "Santa Fe" }, "geometry": { "type": "Point", "coordinates": [ -61.390912, -32.810935 ] } },
{ "type": "Feature", "properties": { "id": 58, "nombre": "Grupo San Juan S.A.", "direccion": "San Martín 2701", "lat": -32.735239, "lon": -60.734019, "localidad": "San Lorenzo", "provincia": "Santa Fe", "zona": "Santa Fe" }, "geometry": { "type": "Point", "coordinates": [ -60.734019, -32.735239 ] } },
{ "type": "Feature", "properties": { "id": 5, "nombre": "Autocentro Amalio Orazzi", "direccion": "Bv. Alvear 250", "lat": -32.4106802, "lon": -63.2367961, "localidad": "Villa María", "provincia": "Córdoba", "zona": "Córdoba" }, "geometry": { "type": "Point", "coordinates": [ -63.236796, -32.41068 ] } },
{ "type": "Feature", "properties": { "id": 31, "nombre": "Crespo Neumaticos", "direccion": "Pte. J.D. Perón 783", "lat": -32.3858461, "lon": -59.7882691, "localidad": "Nogoya", "provincia": "Entre Ríos", "zona": "Entre Ríos" }, "geometry": { "type": "Point", "coordinates": [ -59.788269, -32.385846 ] } },
{ "type": "Feature", "properties": { "id": 83, "nombre": "Neumáticos Macxi", "direccion": "C. Pellegrini 829", "lat": -31.918001, "lon": -63.6862887, "localidad": "Oncativo", "provincia": "Córdoba", "zona": "Córdoba" }, "geometry": { "type": "Point", "coordinates": [ -63.686289, -31.918001 ] } },
{ "type": "Feature", "properties": { "id": 11, "nombre": "Autocentro H. Gasparin", "direccion": "Av. Almafuerte 725", "lat": -31.7481895, "lon": -60.5083505, "localidad": "Paraná", "provincia": "Entre Ríos", "zona": "Entre Ríos" }, "geometry": { "type": "Point", "coordinates": [ -60.50835, -31.748189 ] } },
{ "type": "Feature", "properties": { "id": 43, "nombre": "Faldani Neumáticos", "direccion": "Gral. Paz 1227", "lat": -31.6545043, "lon": -63.9074643, "localidad": "Río Segundo", "provincia": "Córdoba", "zona": "Córdoba" }, "geometry": { "type": "Point", "coordinates": [ -63.907464, -31.654504 ] } },
{ "type": "Feature", "properties": { "id": 8, "nombre": "Autocentro Giro S.A.", "direccion": "San Luis 3223", "lat": -31.639449, "lon": -60.701117, "localidad": "Santa Fe", "provincia": "Santa Fe", "zona": "Santa Fe" }, "geometry": { "type": "Point", "coordinates": [ -60.701117, -31.639449 ] } },
{ "type": "Feature", "properties": { "id": 36, "nombre": "Distribuidora Equip Gom", "direccion": "Av san Martin 5761", "lat": -31.5180542, "lon": -60.6814544, "localidad": "Montevera", "provincia": "Santa Fe", "zona": "Santa Fe" }, "geometry": { "type": "Point", "coordinates": [ -60.681454, -31.518054 ] } },
{ "type": "Feature", "properties": { "id": 109, "nombre": "Pronel", "direccion": "Rivadavia 605 esq. Salta", "lat": -31.4930541, "lon": -68.5458512, "localidad": "San Juan", "provincia": "San Juan", "zona": "San Juan" }, "geometry": { "type": "Point", "coordinates": [ -68.545851, -31.493054 ] } },
{ "type": "Feature", "properties": { "id": 71, "nombre": "NEUMATER", "direccion": "AV. Sabattini 3735", "lat": -31.4318335, "lon": -64.1377977, "localidad": "Córdoba", "provincia": "Córdoba", "zona": "Córdoba" }, "geometry": { "type": "Point", "coordinates": [ -64.137798, -31.431834 ] } },
{ "type": "Feature", "properties": { "id": 106, "nombre": "Ponzetti Hnos.", "direccion": "Av. Urquiza 695", "lat": -31.4211862, "lon": -62.0954713, "localidad": "San Francisco", "provincia": "Córdoba", "zona": "Córdoba" }, "geometry": { "type": "Point", "coordinates": [ -62.095471, -31.421186 ] } },
{ "type": "Feature", "properties": { "id": 9, "nombre": "Autocentro Grupo San Juan", "direccion": "Castro Barros 1250", "lat": -31.3941273, "lon": -64.2020579, "localidad": "Córdoba", "provincia": "Córdoba", "zona": "Córdoba" }, "geometry": { "type": "Point", "coordinates": [ -64.202058, -31.394127 ] } },
{ "type": "Feature", "properties": { "id": 23, "nombre": "Bertolotto", "direccion": "Monseñor Pablo Cabrera 3945", "lat": -31.369928, "lon": -64.2059728, "localidad": "Córdoba", "provincia": "Córdoba", "zona": "Córdoba" }, "geometry": { "type": "Point", "coordinates": [ -64.205973, -31.369928 ] } },
{ "type": "Feature", "properties": { "id": 74, "nombre": "Neumaticos Madeira", "direccion": "Recta Martinoli 8311", "lat": -31.3469452, "lon": -64.2779229, "localidad": "Barrio Arguello", "provincia": "Córdoba", "zona": "Córdoba" }, "geometry": { "type": "Point", "coordinates": [ -64.277923, -31.346945 ] } },
{ "type": "Feature", "properties": { "id": 119, "nombre": "Suspensión Martín", "direccion": "Av. Argentina 1658", "lat": -31.3016018, "lon": -64.2834345, "localidad": "Villa Allende", "provincia": "Córdoba", "zona": "Córdoba" }, "geometry": { "type": "Point", "coordinates": [ -64.283434, -31.301602 ] } },
{ "type": "Feature", "properties": { "id": 7, "nombre": "Autocentro Fraire", "direccion": "Bv. Sta. Fe Y Francia", "lat": -31.2560947, "lon": -61.4720268, "localidad": "Rafaela", "provincia": "Santa Fe", "zona": "Santa Fe" }, "geometry": { "type": "Point", "coordinates": [ -61.472027, -31.256095 ] } },
{ "type": "Feature", "properties": { "id": 127, "nombre": "Zanetti neumaticos", "direccion": "Rivadavia y Ruta 11", "lat": -29.8901299, "lon": -60.2802687, "localidad": "Calchaqui", "provincia": "Santa Fe", "zona": "Santa Fe" }, "geometry": { "type": "Point", "coordinates": [ -60.280269, -29.89013 ] } },
{ "type": "Feature", "properties": { "id": 56, "nombre": "Gomería El Progreso", "direccion": "B. de Astrada 1645", "lat": -29.790524, "lon": -58.0551196, "localidad": "Curuzu Cuatia", "provincia": "Corrientes", "zona": "Corrientes" }, "geometry": { "type": "Point", "coordinates": [ -58.05512, -29.790524 ] } },
{ "type": "Feature", "properties": { "id": 55, "nombre": "Gomería El Progreso", "direccion": "S. Martín Y Niño Rhupa", "lat": -29.1813963, "lon": -58.0882022, "localidad": "Mercedes", "provincia": "Corrientes", "zona": "Corrientes" }, "geometry": { "type": "Point", "coordinates": [ -58.088202, -29.181396 ] } },
{ "type": "Feature", "properties": { "id": 40, "nombre": "Fabbro Miguel Alfonso", "direccion": "Moreno 1598", "lat": -29.1399499, "lon": -59.6554766, "localidad": "Reconquista", "provincia": "Santa Fe", "zona": "Santa Fe" }, "geometry": { "type": "Point", "coordinates": [ -59.655477, -29.13995 ] } },
{ "type": "Feature", "properties": { "id": 63, "nombre": "JASA NEUMATICOS", "direccion": "Av. Felipe Figueroa 348", "lat": -28.4665234, "lon": -65.8011981, "localidad": "San F. del Valle de Catamarca", "provincia": "Catamarca", "zona": "Catamarca" }, "geometry": { "type": "Point", "coordinates": [ -65.801198, -28.466523 ] } },
{ "type": "Feature", "properties": { "id": 48, "nombre": "Francisco Pereira S.C.A", "direccion": "Av. 3 de Abril 701", "lat": -27.474727, "lon": -58.842104, "localidad": "Corrientes", "provincia": "Corrientes", "zona": "Corrientes" }, "geometry": { "type": "Point", "coordinates": [ -58.842104, -27.474727 ] } },
{ "type": "Feature", "properties": { "id": 116, "nombre": "Servigom", "direccion": "Sarmiento 1915", "lat": -27.4357847, "lon": -58.969467, "localidad": "Resistencia", "provincia": "Chaco", "zona": "Chaco" }, "geometry": { "type": "Point", "coordinates": [ -58.969467, -27.435785 ] } },
{ "type": "Feature", "properties": { "id": 25, "nombre": "Borel Neumáticos", "direccion": "Av. Uruguay 5723 Y Japón", "lat": -27.4002146, "lon": -55.9021713, "localidad": "Posadas", "provincia": "Misiones", "zona": "Misiones" }, "geometry": { "type": "Point", "coordinates": [ -55.902171, -27.400215 ] } },
{ "type": "Feature", "properties": { "id": 65, "nombre": "Lider Neumaticos", "direccion": "Felix de Azara 2575", "lat": -27.3742079, "lon": -55.8944982, "localidad": "Posadas", "provincia": "Misiones", "zona": "Misiones" }, "geometry": { "type": "Point", "coordinates": [ -55.894498, -27.374208 ] } },
{ "type": "Feature", "properties": { "id": 24, "nombre": "Borel Neumáticos", "direccion": "Av. Uruguay 801", "lat": -27.3631672, "lon": -55.9076638, "localidad": "Posadas", "provincia": "Misiones", "zona": "Misiones" }, "geometry": { "type": "Point", "coordinates": [ -55.907664, -27.363167 ] } },
{ "type": "Feature", "properties": { "id": 103, "nombre": "PEVISA", "direccion": "Catarmarca 353", "lat": -26.824608, "lon": -65.211198, "localidad": "San Miguel de Tucuman", "provincia": "Tucuman", "zona": "Tucuman" }, "geometry": { "type": "Point", "coordinates": [ -65.211198, -26.824608 ] } },
{ "type": "Feature", "properties": { "id": 102, "nombre": "PEVISA", "direccion": "Av. Kirchner 2315", "lat": -26.783995, "lon": -65.2422507, "localidad": "San Miguel de Tucuman", "provincia": "Tucuman", "zona": "Tucuman" }, "geometry": { "type": "Point", "coordinates": [ -65.242251, -26.783995 ] } },
{ "type": "Feature", "properties": { "id": 73, "nombre": "Neumaticos Campos", "direccion": "Urquiza 1649", "lat": -24.7912814, "lon": -65.4257626, "localidad": "Salta", "provincia": "Salta", "zona": "Salta" }, "geometry": { "type": "Point", "coordinates": [ -65.425763, -24.791281 ] } },
{ "type": "Feature", "properties": { "id": 88, "nombre": "Neumáticos Pioli", "direccion": "Av Almirante G Brown 883", "lat": -24.1988603, "lon": -65.2866933, "localidad": "San S. de Jujuy", "provincia": "Jujuy", "zona": "Jujuy" }, "geometry": { "type": "Point", "coordinates": [ -65.286693, -24.19886 ] } },
{ "type": "Feature", "properties": { "id": 12, "nombre": "Autocentro Morala", "direccion": "Ruta Nacional 1 N° 805 Esq. Av. San Martín", "lat": -35.671578, "lon": -63.742575, "localidad": "General Pico", "provincia": "La Pampa", "zona": "La Pampa" }, "geometry": { "type": "Point", "coordinates": [ -63.742575, -35.671578 ] } },
{ "type": "Feature", "properties": { "id": 22, "nombre": "Barcena Neumáticos", "direccion": "San Justo y J D Peron", "lat": -31.65067, "lon": -63.906178, "localidad": "Río Segundo", "provincia": "Córdoba", "zona": "Córdoba" }, "geometry": { "type": "Point", "coordinates": [ -63.906178, -31.65067 ] } },
{ "type": "Feature", "properties": { "id": 49, "nombre": "Francisco Pereira S.C.A", "direccion": "Ruta 12 Km. 10305", "lat": -27.481884, "lon": -58.783345, "localidad": "Corrientes", "provincia": "Corrientes", "zona": "Corrientes" }, "geometry": { "type": "Point", "coordinates": [ -58.783345, -27.481884 ] } },
{ "type": "Feature", "properties": { "id": 61, "nombre": "Gustavo Tomasi", "direccion": "Av. Presidente Perón 682 (Ex RN 177)", "lat": -33.235169, "lon": -60.326376, "localidad": "Villa Constitución", "provincia": "Santa Fe", "zona": "Santa Fe" }, "geometry": { "type": "Point", "coordinates": [ -60.326376, -33.235169 ] } },
{ "type": "Feature", "properties": { "id": 62, "nombre": "IMPORT RACER", "direccion": "Av. Libertador 492", "lat": -34.529836, "lon": -58.470156, "localidad": "Acassuso", "provincia": "Buenos Aires", "zona": "Gran Buenos Aires" }, "geometry": { "type": "Point", "coordinates": [ -58.470156, -34.529836 ] } },
{ "type": "Feature", "properties": { "id": 66, "nombre": "Los Abedules S.A.", "direccion": "Ruta 258 N 141", "lat": -41.967953, "lon": -71.535178, "localidad": "El Bolson", "provincia": "Río Negro", "zona": "Río Negro" }, "geometry": { "type": "Point", "coordinates": [ -71.535178, -41.967953 ] } },
{ "type": "Feature", "properties": { "id": 72, "nombre": "Neumaticos AGV", "direccion": "Av. Ciudad de Asunción 1802", "lat": -24.797281, "lon": -65.371774, "localidad": "Salta", "provincia": "Salta", "zona": "Salta" }, "geometry": { "type": "Point", "coordinates": [ -65.371774, -24.797281 ] } },
{ "type": "Feature", "properties": { "id": 97, "nombre": "Neumáticos Rosmi", "direccion": "Esteban Echeverria 3398 (Colectora Panamericana) ", "lat": -34.516783, "lon": -58.518218, "localidad": "Munro", "provincia": "Buenos Aires", "zona": "Gran Buenos Aires" }, "geometry": { "type": "Point", "coordinates": [ -58.518218, -34.516783 ] } },
{ "type": "Feature", "properties": { "id": 99, "nombre": "Oeste Neumáticos", "direccion": "Bartolome Mitre 577", "lat": -42.916859, "lon": -71.32331, "localidad": "Esquel", "provincia": "Chubut", "zona": "Chubut" }, "geometry": { "type": "Point", "coordinates": [ -71.32331, -42.916859 ] } },
{ "type": "Feature", "properties": { "id": 100, "nombre": "Orazzi Neumáticos", "direccion": "Bv. Moreno Esq. Alberdi", "lat": -32.434489, "lon": -63.727372, "localidad": "Hernando", "provincia": "Córdoba", "zona": "Córdoba" }, "geometry": { "type": "Point", "coordinates": [ -63.727372, -32.434489 ] } },
{ "type": "Feature", "properties": { "id": 101, "nombre": "Oscar Grasselli", "direccion": "Jorge R. Rodríguez 1235", "lat": -33.017165, "lon": -61.048119, "localidad": "Pujato", "provincia": "Santa Fe", "zona": "Santa Fe" }, "geometry": { "type": "Point", "coordinates": [ -61.048119, -33.017165 ] } },
{ "type": "Feature", "properties": { "id": 107, "nombre": "Ponzetti Hnos.", "direccion": "Av. Remigio Mancini 286", "lat": -33.116769, "lon": -62.316683, "localidad": "Gral. Baldissera", "provincia": "Córdoba", "zona": "Córdoba" }, "geometry": { "type": "Point", "coordinates": [ -62.316683, -33.116769 ] } },
{ "type": "Feature", "properties": { "id": 108, "nombre": "Ponzetti Hnos.", "direccion": "Av. Int. Loinas 1427", "lat": -32.69745, "lon": -62.10602, "localidad": "Marcos Juárez", "provincia": "Córdoba", "zona": "Córdoba" }, "geometry": { "type": "Point", "coordinates": [ -62.10602, -32.69745 ] } },
{ "type": "Feature", "properties": { "id": 111, "nombre": "Ruddat (La Ceresina)", "direccion": "Victoria Y Vte. López Planes", "lat": -29.877507, "lon": -61.938037, "localidad": "Ceres", "provincia": "Santa Fe", "zona": "Santa Fe" }, "geometry": { "type": "Point", "coordinates": [ -61.938037, -29.877507 ] } },
{ "type": "Feature", "properties": { "id": 115, "nombre": "Servicio Mecánico Brochero", "direccion": "Ruta N° 14 2111 - B° Santa Ana", "lat": -31.72808, "lon": -65.005577, "localidad": "Mina Clavero", "provincia": "Córdoba", "zona": "Córdoba" }, "geometry": { "type": "Point", "coordinates": [ -65.005577, -31.72808 ] } },
{ "type": "Feature", "properties": { "id": 117, "nombre": "Servigom", "direccion": "Ruta 89 Km 72,8 Acceso a Charata", "lat": -27.221564, "lon": -61.173203, "localidad": "Charata", "provincia": "Chaco", "zona": "Chaco" }, "geometry": { "type": "Point", "coordinates": [ -61.173203, -27.221564 ] } },
{ "type": "Feature", "properties": { "id": 118, "nombre": "Servigom", "direccion": "Cte. Fernández 40", "lat": -26.794886, "lon": -60.4435, "localidad": "Presidencia Roque Sáenz Peña", "provincia": "Chaco", "zona": "Chaco" }, "geometry": { "type": "Point", "coordinates": [ -60.4435, -26.794886 ] } },
{ "type": "Feature", "properties": { "id": 121, "nombre": "Velez Neumáticos", "direccion": "Dr. N. Berrotaran 182", "lat": -32.45495, "lon": -64.385366, "localidad": "Berrotaran", "provincia": "Córdoba", "zona": "Córdoba" }, "geometry": { "type": "Point", "coordinates": [ -64.385366, -32.45495 ] } }
]
}
