{"type":"FeatureCollection","features":[{"type":"Feature","geometry":{"type":"Point","coordinates":[-58.4045318,-34.5924226]},"properties":{"id":"1","name":"BARRIO NORTE","phone_number":"3220-6060","category":"Laboratorio a la calle","pediatrics":"1","late_shift":"0","address":"Arenales 2720, Capital Federal","in_result":"1"}},{"type":"Feature","geometry":{"type":"Point","coordinates":[-58.4543025,-34.5627022]},"properties":{"id":"2","name":"BELGRANO","phone_number":"3220-6080","category":"Laboratorio a la calle","pediatrics":"1","late_shift":"0","address":"Vuelta de Obligado 1947 (8vo B), Capital Federal","in_result":"1"}},{"type":"Feature","geometry":{"type":"Point","coordinates":[-58.457313,-34.565075]},"properties":{"id":"3","name":"BELGRANO II","phone_number":"3220-6015","category":"Laboratorio a la calle","pediatrics":"0","late_shift":"0","address":"Sucre 2639, Capital Federal","in_result":"1"}},{"type":"Feature","geometry":{"type":"Point","coordinates":[-58.4132504,-34.5820233]},"properties":{"id":"4","name":"BOTÁNICO","phone_number":"3220-6010","category":"Laboratorio a la calle","pediatrics":"0","late_shift":"0","address":"Av. General Las Heras 3828, Capital Federal","in_result":"1"}},{"type":"Feature","geometry":{"type":"Point","coordinates":[-58.4381694,-34.6216772]},"properties":{"id":"5","name":"CABALLITO","phone_number":"3220-6090","category":"Laboratorio a la calle","pediatrics":"1","late_shift":"0","address":"San José de Calasanz 202, Capital Federal","in_result":"1"}},{"type":"Feature","geometry":{"type":"Point","coordinates":[-58.3921456,-34.6085956]},"properties":{"id":"6","name":"CONGRESO","phone_number":"3220-6050","category":"Laboratorio a la calle","pediatrics":"1","late_shift":"0","address":"Av. Callao 52, Capital Federal","in_result":"1"}},{"type":"Feature","geometry":{"type":"Point","coordinates":[-58.4599312,-34.6276949]},"properties":{"id":"7","name":"FLORES","phone_number":"3220-6030","category":"Laboratorio a la calle","pediatrics":"1","late_shift":"0","address":"Gavilán 15 1°, Capital Federal","in_result":"1"}},{"type":"Feature","geometry":{"type":"Point","coordinates":[-58.4380473,-34.5670577]},"properties":{"id":"8","name":"LA IMPRENTA","phone_number":"3220-6055","category":"Laboratorio a la calle","pediatrics":"0","late_shift":"0","address":"Gorostiaga 1897, Capital Federal","in_result":"1"}},{"type":"Feature","geometry":{"type":"Point","coordinates":[-58.5214643,-34.6390525]},"properties":{"id":"9","name":"LINIERS","phone_number":"3220-6040","category":"Laboratorio a la calle","pediatrics":"1","late_shift":"0","address":"Av. Rivadavia 11114, Capital Federal","in_result":"1"}},{"type":"Feature","geometry":{"type":"Point","coordinates":[-58.4404291,-34.5861515]},"properties":{"id":"10","name":"PALERMO HOLLYWOOD","phone_number":"3220-6005","category":"Laboratorio a la calle","pediatrics":"0","late_shift":"1","address":"Bonpland 1397, Capital Federal","in_result":"1"}},{"type":"Feature","geometry":{"type":"Point","coordinates":[-58.4222013,-34.5813473]},"properties":{"id":"11","name":"PLAZA ITALIA","phone_number":"3220-5080","category":"Laboratorio a la calle","pediatrics":"0","late_shift":"0","address":"Thames 2480, Capital Federal","in_result":"1"}},{"type":"Feature","geometry":{"type":"Point","coordinates":[-58.3927662,-34.5934018]},"properties":{"id":"12","name":"RECOLETA","phone_number":"3220-6070","category":"Laboratorio a la calle","pediatrics":"1","late_shift":"0","address":"Av. Callao 1343, Capital Federal","in_result":"1"}},{"type":"Feature","geometry":{"type":"Point","coordinates":[-58.3836223,-34.5955335]},"properties":{"id":"13","name":"RETIRO","phone_number":"3220-6020","category":"Laboratorio a la calle","pediatrics":"1","late_shift":"0","address":"Av. Santa Fe 1154, Capital Federal","in_result":"1"}},{"type":"Feature","geometry":{"type":"Point","coordinates":[-58.4397891,-34.6009233]},"properties":{"id":"14","name":"VILLA CRESPO","phone_number":"3220-6045","category":"Laboratorio a la calle","pediatrics":"0","late_shift":"0","address":"Camargo 470, Capital Federal","in_result":"1"}},{"type":"Feature","geometry":{"type":"Point","coordinates":[-58.400841,-34.597729]},"properties":{"id":"15","name":"CENTRO MÉDICUS AZCUÉNAGA","phone_number":"0800-333-3338","category":"Laboratorio en institución médica","pediatrics":"0","late_shift":"0","address":"Azcuénaga 910, Capital Federal","in_result":"0"}},{"type":"Feature","geometry":{"type":"Point","coordinates":[-58.4531429,-34.5632268]},"properties":{"id":"16","name":"CENTRO MÉDICUS BELGRANO","phone_number":"0800-333-3338","category":"Laboratorio en institución médica","pediatrics":"0","late_shift":"0","address":"Cuba 1886, Capital Federal","in_result":"0"}},{"type":"Feature","geometry":{"type":"Point","coordinates":[-58.544966,-34.4979639]},"properties":{"id":"17","name":"CENTRO MÉDICO HEPTA","phone_number":"4735-8100","category":"Laboratorio en institución médica","pediatrics":"0","late_shift":"0","address":"Av. Fondo de la Legua 577, San Isidro","in_result":"1"}},{"type":"Feature","geometry":{"type":"Point","coordinates":[-58.6518292,-34.4003088]},"properties":{"id":"18","name":"CENTRO MÉDICO NORDELTA","phone_number":"4871-2222","category":"Laboratorio en institución médica","pediatrics":"0","late_shift":"0","address":"Av. de los Lagos 6785, Tigre","in_result":"1"}},{"type":"Feature","geometry":{"type":"Point","coordinates":[-58.5482894,-34.495518]},"properties":{"id":"19","name":"CLÍNICA ANGELUS","phone_number":"4735-2901","category":"Laboratorio en institución médica","pediatrics":"0","late_shift":"0","address":"Av. Fondo de la Legua 390, San Isidro","in_result":"1"}},{"type":"Feature","geometry":{"type":"Point","coordinates":[-58.4075975,-34.5872553]},"properties":{"id":"21","name":"CLÍNICA BAZTERRICA","phone_number":"3220-5501","category":"Laboratorio en institución médica","pediatrics":"0","late_shift":"0","address":"Juncal 3002, Capital Federal","in_result":"0"}},{"type":"Feature","geometry":{"type":"Point","coordinates":[-58.4079783,-34.5865845]},"properties":{"id":"22","name":"CLÍNICA DEL SOL","phone_number":"3220-5520","category":"Laboratorio en institución médica","pediatrics":"0","late_shift":"0","address":"Av. Coronel Díaz 2211, Capital Federal","in_result":"0"}},{"type":"Feature","geometry":{"type":"Point","coordinates":[-58.4558897,-34.6317887]},"properties":{"id":"23","name":"CLÍNICA SANTA ISABEL","phone_number":"3220-5510","category":"Laboratorio en institución médica","pediatrics":"0","late_shift":"0","address":"Av. Directorio 2037, Capital Federal","in_result":"0"}},{"type":"Feature","geometry":{"type":"Point","coordinates":[-58.3913033,-34.6063917]},"properties":{"id":"24","name":"CONSULTORIO EXTERNO CLÍNICA BAZTERRICA","phone_number":"3220-5505","category":"Laboratorio en institución médica","pediatrics":"0","late_shift":"0","address":"Perón 1739 (3er piso), Capital Federal","in_result":"0"}},{"type":"Feature","geometry":{"type":"Point","coordinates":[-58.4668814,-34.6463952]},"properties":{"id":"25","name":"FUNDACIÓN ARGENTINA SALUD SOLIDARIA","phone_number":"4613-3275","category":"Laboratorio en institución médica","pediatrics":"0","late_shift":"0","address":"Mariano Acosta 1421, Capital Federal","in_result":"0"}},{"type":"Feature","geometry":{"type":"Point","coordinates":[-58.4646964,-34.6313373]},"properties":{"id":"26","name":"IMAGEN TEST","phone_number":"3220-5590","category":"Laboratorio en institución médica","pediatrics":"0","late_shift":"0","address":"Varela 140, Capital Federal","in_result":"0"}},{"type":"Feature","geometry":{"type":"Point","coordinates":[-58.5447929,-34.4959646]},"properties":{"id":"29","name":"SANATORIO LAS LOMAS","phone_number":"3220-5570","category":"Laboratorio en institución médica","pediatrics":"0","late_shift":"0","address":"Diego Carman 555, San Isidro","in_result":"1"}},{"type":"Feature","geometry":{"type":"Point","coordinates":[-58.4008783,-34.5984148]},"properties":{"id":"30","name":"SANATORIO OTAMENDI","phone_number":"4965-2900","category":"Laboratorio en institución médica","pediatrics":"0","late_shift":"0","address":"Azcuénaga 870, Capital Federal","in_result":"0"}},{"type":"Feature","geometry":{"type":"Point","coordinates":[-58.466343,-34.598852]},"properties":{"id":"32","name":"SERVICIO PENITENCIARIO FEDERAL","phone_number":"3220-5595","category":"Laboratorio en institución médica","pediatrics":"0","late_shift":"0","address":"Trelles 2592, Capital Federal","in_result":"0"}},{"type":"Feature","geometry":{"type":"Point","coordinates":[-58.3918661,-34.6088611]},"properties":{"id":"33","name":"CentraLab Medicina Empresaria","phone_number":"5199-4800","category":"Centro de Medicina Empresaria","pediatrics":"0","late_shift":"0","address":"Av. Callao 25 Piso 2° C, Capital Federal","in_result":"1"}},{"type":"Feature","geometry":{"type":"Point","coordinates":[-58.3917281,-34.6089028]},"properties":{"id":"34","name":"CEMP MEDICINA EJECUTIVA","phone_number":"5199-4810","category":"Centro de Medicina Empresaria","pediatrics":"0","late_shift":"0","address":"Av. Callao 25 Piso 2° C, Capital Federal","in_result":"1"}},{"type":"Feature","geometry":{"type":"Point","coordinates":[-58.8715043,-34.4452208]},"properties":{"id":"35","name":"CENTRO MEDICO PILAR","phone_number":"4708-5025","category":"Laboratorio en institución médica","pediatrics":"0","late_shift":"0","address":"Av. De las Magnolias 533, km 50 Rml Pilar","in_result":"1"}}]}
