{
"type": "FeatureCollection",
"crs": { "type": "name", "properties": { "name": "urn:ogc:def:crs:OGC:1.3:CRS84" } },
"features": [
{ "type": "Feature", "properties": { "nro": 1, "empresa": "STAR X", "origen": "Nac.", "sector": "HARDWARE", "gradoAvanc": "En Operación", "direccion": "PEPIRI 758", "direccion2": "PEPIRI 758", "latitud": -34.646838, "longitud": -58.409251, "g_lat": -34.6468541, "g_lon": -58.4092689 }, "geometry": { "type": "Point", "coordinates": [ -58.409251, -34.646838 ] } },
{ "type": "Feature", "properties": { "nro": 2, "empresa": "IRON MOUNTAIN", "origen": "Ext.", "sector": "BPO", "gradoAvanc": "En Operación", "direccion": "AMANCIO ALCORTA 2482", "direccion2": "AV. AMANCIO ALCORTA 2482", "latitud": -34.642431, "longitud": -58.396043, "g_lat": -34.6424371, "g_lon": -58.3960018 }, "geometry": { "type": "Point", "coordinates": [ -58.396043, -34.642431 ] } },
{ "type": "Feature", "properties": { "nro": 3, "empresa": "TATA", "origen": "Ext.", "sector": "BPO", "gradoAvanc": "En Operación", "direccion": "USPALLATA 3034", "direccion2": "USPALLATA 3034", "latitud": -34.640273, "longitud": -58.405826, "g_lat": -34.6402383, "g_lon": -58.405578 }, "geometry": { "type": "Point", "coordinates": [ -58.405826, -34.640273 ] } },
{ "type": "Feature", "properties": { "nro": 5, "empresa": "IBC ARGENTINA", "origen": "Nac.", "sector": "SOFTWARE", "gradoAvanc": "En Operación", "direccion": "CATULO CASTILLO 2930 PB 5", "direccion2": "CATULO CASTILLO 2930", "latitud": -34.634559, "longitud": -58.404877, "g_lat": -34.6345103, "g_lon": -58.4048769 }, "geometry": { "type": "Point", "coordinates": [ -58.404877, -34.634559 ] } },
{ "type": "Feature", "properties": { "nro": 6, "empresa": "CMD - COMPAÑÍA MEDIOS DIGITALES", "origen": "Nac.", "sector": "BPO", "gradoAvanc": "En Operación", "direccion": "COLONIA 156\/170", "direccion2": "COLONIA 156", "latitud": -34.637635, "longitud": -58.398115, "g_lat": -34.6376595, "g_lon": -58.3981944 }, "geometry": { "type": "Point", "coordinates": [ -58.398115, -34.637635 ] } },
{ "type": "Feature", "properties": { "nro": 7, "empresa": "CZYNE", "origen": "Nac.", "sector": "SOFTWARE", "gradoAvanc": "En Operación", "direccion": "CATULO CASTILLO 3230 OFI 22 - 2", "direccion2": "CATULO CASTILLO 3230", "latitud": -34.635597, "longitud": -58.409747, "g_lat": -34.6355627, "g_lon": -58.4097417 }, "geometry": { "type": "Point", "coordinates": [ -58.409747, -34.635597 ] } },
{ "type": "Feature", "properties": { "nro": 8, "empresa": "DATCO", "origen": "Nac.", "sector": "SOFTWARE", "gradoAvanc": "En Operación", "direccion": "CATULO CASTILLO 3251", "direccion2": "CATULO CASTILLO 3251", "latitud": -34.63553, "longitud": -58.409921, "g_lat": -34.6355705, "g_lon": -58.4099262 }, "geometry": { "type": "Point", "coordinates": [ -58.409921, -34.63553 ] } },
{ "type": "Feature", "properties": { "nro": 9, "empresa": "AVANZIT", "origen": "Nac.", "sector": "SOFTWARE", "gradoAvanc": "En Operación", "direccion": "La Rioja 2011", "direccion2": "LA RIOJA 2011", "latitud": -34.634845, "longitud": -58.405875, "g_lat": -34.6349557, "g_lon": -58.4059878 }, "geometry": { "type": "Point", "coordinates": [ -58.405875, -34.634845 ] } },
{ "type": "Feature", "properties": { "nro": 10, "empresa": "EXO", "origen": "Nac.", "sector": "HARDWARE", "gradoAvanc": "En Operación", "direccion": "CHICLANA 3436", "direccion2": "CHICLANA 3436", "latitud": -34.635743, "longitud": -58.413105, "g_lat": -34.6357115, "g_lon": -58.4131257 }, "geometry": { "type": "Point", "coordinates": [ -58.413105, -34.635743 ] } },
{ "type": "Feature", "properties": { "nro": 11, "empresa": "SYSTEM MASTER", "origen": "Nac.", "sector": "SOFTWARE", "gradoAvanc": "En Operación", "direccion": "BEAZLEY 3549\/3551", "direccion2": "BEAZLEY 3549", "latitud": -34.653011, "longitud": -58.409813, "g_lat": -34.6529729, "g_lon": -58.4097897 }, "geometry": { "type": "Point", "coordinates": [ -58.409813, -34.653011 ] } },
{ "type": "Feature", "properties": { "nro": 12, "empresa": "ENTORNOS EDUCATIVOS", "origen": "Nac.", "sector": "SOFTWARE", "gradoAvanc": "En Operación", "direccion": "JUJUY 1963 PISO 9D", "direccion2": "AV. JUJUY 1963", "latitud": -34.633398, "longitud": -58.399942, "g_lat": -34.6333204, "g_lon": -58.3999378 }, "geometry": { "type": "Point", "coordinates": [ -58.399942, -34.633398 ] } },
{ "type": "Feature", "properties": { "nro": 13, "empresa": "GRUPO GC", "origen": "Nac.", "sector": "SOFTWARE", "gradoAvanc": "En Operación", "direccion": "ESTEBAN DE LUCA 1981", "direccion2": "ESTEBAN DE LUCA 1981", "latitud": -34.63346, "longitud": -58.402957, "g_lat": -34.6334137, "g_lon": -58.4029983 }, "geometry": { "type": "Point", "coordinates": [ -58.402957, -34.63346 ] } },
{ "type": "Feature", "properties": { "nro": 14, "empresa": "CORA-DIR", "origen": "Nac.", "sector": "HARDWARE", "gradoAvanc": "En Operación", "direccion": "USPALLATA 2853\/57", "direccion2": "USPALLATA 2853", "latitud": -34.638932, "longitud": -58.402139, "g_lat": -34.6390239, "g_lon": -58.4024345 }, "geometry": { "type": "Point", "coordinates": [ -58.402139, -34.638932 ] } },
{ "type": "Feature", "properties": { "nro": 15, "empresa": "NOVATECH", "origen": "Nac.", "sector": "HARDWARE", "gradoAvanc": "En Operación", "direccion": "USPALLATA 2768\/70\/72", "direccion2": "USPALLATA 2768", "latitud": -34.638767, "longitud": -58.400868, "g_lat": -34.6387577, "g_lon": -58.4008321 }, "geometry": { "type": "Point", "coordinates": [ -58.400868, -34.638767 ] } },
{ "type": "Feature", "properties": { "nro": 16, "empresa": "DINATECH", "origen": "Nac.", "sector": "BPO", "gradoAvanc": "En Operación", "direccion": "Zavaleta 85", "direccion2": "ZAVALETA 85", "latitud": -34.637712, "longitud": -58.403644, "g_lat": -34.6378306, "g_lon": -58.4035275 }, "geometry": { "type": "Point", "coordinates": [ -58.403644, -34.637712 ] } },
{ "type": "Feature", "properties": { "nro": 17, "empresa": "HIT 1", "origen": "Nac.", "sector": "DATA CENTER", "gradoAvanc": "En Operación", "direccion": "CHICLANA 3345", "direccion2": "CHICLANA 3345", "latitud": -34.63447, "longitud": -58.411518, "g_lat": -34.6344402, "g_lon": -58.4119357 }, "geometry": { "type": "Point", "coordinates": [ -58.411518, -34.63447 ] } },
{ "type": "Feature", "properties": { "nro": 18, "empresa": "BANGHO", "origen": "Nac.", "sector": "HARDWARE", "gradoAvanc": "En Operación", "direccion": "BRASIL 3031\/33", "direccion2": "AV. BRASIL 3031", "latitud": -34.633812, "longitud": -58.406678, "g_lat": -34.6338347, "g_lon": -58.4065917 }, "geometry": { "type": "Point", "coordinates": [ -58.406678, -34.633812 ] } },
{ "type": "Feature", "properties": { "nro": 19, "empresa": "SERSAT", "origen": "Nac.", "sector": "BPO", "gradoAvanc": "En Operación", "direccion": "JUJUY 1956", "direccion2": "AV. JUJUY 1956", "latitud": -34.633168, "longitud": -58.399815, "g_lat": -34.6331802, "g_lon": -58.3998048 }, "geometry": { "type": "Point", "coordinates": [ -58.399815, -34.633168 ] } },
{ "type": "Feature", "properties": { "nro": 20, "empresa": "GRUPO NUCLEO", "origen": "Nac.", "sector": "HARDWARE", "gradoAvanc": "En Operación", "direccion": "USPALLATA 2768\/2776", "direccion2": "USPALLATA 2768", "latitud": -34.638767, "longitud": -58.400868, "g_lat": -34.6387577, "g_lon": -58.4008321 }, "geometry": { "type": "Point", "coordinates": [ -58.400868, -34.638767 ] } },
{ "type": "Feature", "properties": { "nro": 21, "empresa": "BANK", "origen": "Nac.", "sector": "BPO", "gradoAvanc": "En Operación", "direccion": "DIOGENES TABORDA 73", "direccion2": "DIOGENES TABORDA 73", "latitud": -34.639427, "longitud": -58.412995, "g_lat": -34.6394158, "g_lon": -58.4129665 }, "geometry": { "type": "Point", "coordinates": [ -58.412995, -34.639427 ] } },
{ "type": "Feature", "properties": { "nro": 22, "empresa": "QUANTUM TECNOLOGÍA", "origen": "Nac.", "sector": "SOFTWARE", "gradoAvanc": "En Operación", "direccion": "LAVARDEN 145", "direccion2": "LAVARDEN 145", "latitud": -34.638022, "longitud": -58.401813, "g_lat": -34.6381395, "g_lon": -58.4017522 }, "geometry": { "type": "Point", "coordinates": [ -58.401813, -34.638022 ] } },
{ "type": "Feature", "properties": { "nro": 23, "empresa": "MEGATECH", "origen": "Nac.", "sector": "HARDWARE", "gradoAvanc": "En Operación", "direccion": "PATAGONES 2827 PISO 3y4", "direccion2": "PATAGONES 2827", "latitud": -34.637695, "longitud": -58.402283, "g_lat": -34.637673, "g_lon": -58.402214 }, "geometry": { "type": "Point", "coordinates": [ -58.402283, -34.637695 ] } },
{ "type": "Feature", "properties": { "nro": 25, "empresa": "SENSEBYTE", "origen": "Nac.", "sector": "SOFTWARE", "gradoAvanc": "En Operación", "direccion": "LA RIOJA 2011", "direccion2": "LA RIOJA 2011", "latitud": -34.634845, "longitud": -58.405875, "g_lat": -34.6349557, "g_lon": -58.4059878 }, "geometry": { "type": "Point", "coordinates": [ -58.405875, -34.634845 ] } },
{ "type": "Feature", "properties": { "nro": 26, "empresa": "MSA", "origen": "Nac.", "sector": "SOFTWARE", "gradoAvanc": "En Operación", "direccion": "ATUEL 362", "direccion2": "ATUEL 362", "latitud": -34.642114, "longitud": -58.407407, "g_lat": -34.6420402, "g_lon": -58.4074506 }, "geometry": { "type": "Point", "coordinates": [ -58.407407, -34.642114 ] } },
{ "type": "Feature", "properties": { "nro": 27, "empresa": "E-NFO", "origen": "Nac.", "sector": "SOFTWARE", "gradoAvanc": "En Operación", "direccion": "LOS PATOS 2650", "direccion2": "LOS PATOS 2650", "latitud": -34.639511, "longitud": -58.398401, "g_lat": -34.6394644, "g_lon": -58.3983078 }, "geometry": { "type": "Point", "coordinates": [ -58.398401, -34.639511 ] } },
{ "type": "Feature", "properties": { "nro": 28, "empresa": "TECDIA", "origen": "Nac.", "sector": "BPO", "gradoAvanc": "En Operación", "direccion": "COLONIA 156\/170", "direccion2": "COLONIA 156", "latitud": -34.637635, "longitud": -58.398115, "g_lat": -34.6376595, "g_lon": -58.3981944 }, "geometry": { "type": "Point", "coordinates": [ -58.398115, -34.637635 ] } },
{ "type": "Feature", "properties": { "nro": 29, "empresa": "CONSULTORES TRAVERSO", "origen": "Nac.", "sector": "BPO", "gradoAvanc": "En Operación", "direccion": "JUJUY 1915 PISO 5B", "direccion2": "AV. JUJUY 1915", "latitud": -34.632942, "longitud": -58.400126, "g_lat": -34.6328125, "g_lon": -58.4001099 }, "geometry": { "type": "Point", "coordinates": [ -58.400126, -34.632942 ] } },
{ "type": "Feature", "properties": { "nro": 30, "empresa": "NOVATIUM", "origen": "Nac.", "sector": "SOFTWARE", "gradoAvanc": "En Operación", "direccion": "ESTEBAN DE LUCA 1963", "direccion2": "ESTEBAN DE LUCA 1963", "latitud": -34.633233, "longitud": -58.403018, "g_lat": -34.6332534, "g_lon": -58.4030342 }, "geometry": { "type": "Point", "coordinates": [ -58.403018, -34.633233 ] } },
{ "type": "Feature", "properties": { "nro": 31, "empresa": "TESAM", "origen": "Nac.", "sector": "SOFTWARE", "gradoAvanc": "En Operación", "direccion": "MAZA 2140", "direccion2": "MAZA 2140", "latitud": -34.636448, "longitud": -58.413652, "g_lat": -34.6365445, "g_lon": -58.4136588 }, "geometry": { "type": "Point", "coordinates": [ -58.413652, -34.636448 ] } },
{ "type": "Feature", "properties": { "nro": 32, "empresa": "YEL INFORMATICA", "origen": "Nac.", "sector": "SOFTWARE", "gradoAvanc": "En Operación", "direccion": "CASEROS 3227 PISO 5B", "direccion2": "AV. CASEROS 3227", "latitud": -34.637758, "longitud": -58.409748, "g_lat": -34.6377278, "g_lon": -58.40985 }, "geometry": { "type": "Point", "coordinates": [ -58.409748, -34.637758 ] } },
{ "type": "Feature", "properties": { "nro": 33, "empresa": "COMPUSISTEM", "origen": "Nac.", "sector": "SOFTWARE", "gradoAvanc": "En Operación", "direccion": "RONDEAU 2520 PB OF.04", "direccion2": "RONDEAU 2520", "latitud": -34.634612, "longitud": -58.398177, "g_lat": -34.6345677, "g_lon": -58.3982191 }, "geometry": { "type": "Point", "coordinates": [ -58.398177, -34.634612 ] } },
{ "type": "Feature", "properties": { "nro": 34, "empresa": "PRONTO SISTEMA", "origen": "Nac.", "sector": "BPO", "gradoAvanc": "En Operación", "direccion": "JOSE C. PAZ 2936", "direccion2": "JOSE C. PAZ 2936", "latitud": -34.64397, "longitud": -58.403055, "g_lat": -34.6440014, "g_lon": -58.403018 }, "geometry": { "type": "Point", "coordinates": [ -58.403055, -34.64397 ] } },
{ "type": "Feature", "properties": { "nro": 35, "empresa": "PRESMIA", "origen": "Nac.", "sector": "SOFTWARE", "gradoAvanc": "En Operación", "direccion": "JUJUY 1963,  PISO 8. OF C Y D", "direccion2": "AV. JUJUY 1963", "latitud": -34.633398, "longitud": -58.399942, "g_lat": -34.6333204, "g_lon": -58.3999378 }, "geometry": { "type": "Point", "coordinates": [ -58.399942, -34.633398 ] } },
{ "type": "Feature", "properties": { "nro": 36, "empresa": "NEXT NETWORKS", "origen": "Nac.", "sector": "BPO", "gradoAvanc": "En Operación", "direccion": "JUJUY 1963 PISO 5D", "direccion2": "AV. JUJUY 1963", "latitud": -34.633398, "longitud": -58.399942, "g_lat": -34.6333204, "g_lon": -58.3999378 }, "geometry": { "type": "Point", "coordinates": [ -58.399942, -34.633398 ] } },
{ "type": "Feature", "properties": { "nro": 37, "empresa": "DATAN", "origen": "Nac.", "sector": "SOFTWARE", "gradoAvanc": "En Operación", "direccion": "CATULO CASTILLO 3230 PISO 2 OFIC. 24", "direccion2": "CATULO CASTILLO 3230", "latitud": -34.635597, "longitud": -58.409747, "g_lat": -34.6355627, "g_lon": -58.4097417 }, "geometry": { "type": "Point", "coordinates": [ -58.409747, -34.635597 ] } },
{ "type": "Feature", "properties": { "nro": 38, "empresa": "CAPTTON CONSULTING", "origen": "Nac.", "sector": "BPO", "gradoAvanc": "En Operación", "direccion": "LA RIOJA 2197 1º3", "direccion2": "LA RIOJA 2197", "latitud": -34.636924, "longitud": -58.405691, "g_lat": -34.6369726, "g_lon": -58.4057782 }, "geometry": { "type": "Point", "coordinates": [ -58.405691, -34.636924 ] } },
{ "type": "Feature", "properties": { "nro": 40, "empresa": "IS SECURITY", "origen": "Nac.", "sector": "SOFTWARE", "gradoAvanc": "En Operación", "direccion": "RONDEAU 2575", "direccion2": "RONDEAU 2575", "latitud": -34.634642, "longitud": -58.398933, "g_lat": -34.6345872, "g_lon": -58.3989832 }, "geometry": { "type": "Point", "coordinates": [ -58.398933, -34.634642 ] } },
{ "type": "Feature", "properties": { "nro": 42, "empresa": "IMPLEMENTAR", "origen": "Nac.", "sector": "SOFTWARE", "gradoAvanc": "En Operación", "direccion": "CATULO CASTILLO 3230 PISO 1 OFIC. 12", "direccion2": "CATULO CASTILLO 3230", "latitud": -34.635597, "longitud": -58.409747, "g_lat": -34.6355627, "g_lon": -58.4097417 }, "geometry": { "type": "Point", "coordinates": [ -58.409747, -34.635597 ] } },
{ "type": "Feature", "properties": { "nro": 43, "empresa": "DATASTAR", "origen": "Nac.", "sector": "BPO", "gradoAvanc": "En Operación", "direccion": "JUJUY 1915 PISO 5C", "direccion2": "AV. JUJUY 1915", "latitud": -34.632942, "longitud": -58.400126, "g_lat": -34.6328125, "g_lon": -58.4001099 }, "geometry": { "type": "Point", "coordinates": [ -58.400126, -34.632942 ] } },
{ "type": "Feature", "properties": { "nro": 45, "empresa": "TIGABYTES", "origen": "Nac.", "sector": "SOFTWARE", "gradoAvanc": "En Obra", "direccion": "Av. CASEROS 2602, PISO 5", "direccion2": "AV. CASEROS 2602", "latitud": -34.636011, "longitud": -58.399064, "g_lat": -34.6359238, "g_lon": -58.3988878 }, "geometry": { "type": "Point", "coordinates": [ -58.399064, -34.636011 ] } },
{ "type": "Feature", "properties": { "nro": 46, "empresa": "FARMARECORD", "origen": "Nac.", "sector": "SOFTWARE", "gradoAvanc": "En Operación", "direccion": "PEPIRÍ 254", "direccion2": "PEPIRÍ 254", "latitud": -34.641037, "longitud": -58.408949, "g_lat": -34.6410635, "g_lon": -58.4090025 }, "geometry": { "type": "Point", "coordinates": [ -58.408949, -34.641037 ] } },
{ "type": "Feature", "properties": { "nro": 47, "empresa": "STARWARE", "origen": "Nac.", "sector": "SOFTWARE", "gradoAvanc": "En Operación", "direccion": "DR. PEDRO CHUTRO 3090", "direccion2": "DR. PEDRO CHUTRO 3090", "latitud": -34.642304, "longitud": -58.405829, "g_lat": -34.6422795, "g_lon": -58.4059091 }, "geometry": { "type": "Point", "coordinates": [ -58.405829, -34.642304 ] } },
{ "type": "Feature", "properties": { "nro": 48, "empresa": "DATA FACTORY", "origen": "Nac.", "sector": "SOFTWARE", "gradoAvanc": "En Operación", "direccion": "PATAGONES 2827 PISO 1", "direccion2": "PATAGONES 2827", "latitud": -34.637695, "longitud": -58.402283, "g_lat": -34.637673, "g_lon": -58.402214 }, "geometry": { "type": "Point", "coordinates": [ -58.402283, -34.637695 ] } },
{ "type": "Feature", "properties": { "nro": 49, "empresa": "COS ARGENTINA", "origen": "Nac.", "sector": "SOFTWARE", "gradoAvanc": "En Operación", "direccion": "DR. PEDRO CHUTRO 3302", "direccion2": "DR. PEDRO CHUTRO 3302", "latitud": -34.642738, "longitud": -58.409018, "g_lat": -34.6426801, "g_lon": -58.4088542 }, "geometry": { "type": "Point", "coordinates": [ -58.409018, -34.642738 ] } },
{ "type": "Feature", "properties": { "nro": 50, "empresa": "TELEFONICA G. DE SS COMPARTIDOS", "origen": "Ext.", "sector": "BPO", "gradoAvanc": "En Operación", "direccion": "LOS PATOS 3151", "direccion2": "LOS PATOS 3151", "latitud": -34.641329, "longitud": -58.406947, "g_lat": -34.6413419, "g_lon": -58.4068256 }, "geometry": { "type": "Point", "coordinates": [ -58.406947, -34.641329 ] } },
{ "type": "Feature", "properties": { "nro": 51, "empresa": "INTEROPTICS", "origen": "Nac.", "sector": "SOFTWARE", "gradoAvanc": "En Operación", "direccion": "USPALLATA 2983\/85\/87", "direccion2": "USPALLATA 2983", "latitud": -34.639501, "longitud": -58.404795, "g_lat": -34.6395043, "g_lon": -58.4047713 }, "geometry": { "type": "Point", "coordinates": [ -58.404795, -34.639501 ] } },
{ "type": "Feature", "properties": { "nro": 53, "empresa": "G&L GROUP", "origen": "Nac.", "sector": "SOFTWARE", "gradoAvanc": "En Operación", "direccion": "MONTEAGUDO 275", "direccion2": "MONTEAGUDO 275", "latitud": -34.640761, "longitud": -58.404986, "g_lat": -34.6407654, "g_lon": -58.4049241 }, "geometry": { "type": "Point", "coordinates": [ -58.404986, -34.640761 ] } },
{ "type": "Feature", "properties": { "nro": 54, "empresa": "MTD SOFTWARE SRL", "origen": "Nac.", "sector": "SOFTWARE", "gradoAvanc": "En Operación", "direccion": "CATULO CASTILLO 2932 PISO 4 OF.24", "direccion2": "CATULO CASTILLO 2932", "latitud": -34.634559, "longitud": -58.404877, "g_lat": -34.6345878, "g_lon": -58.4048798 }, "geometry": { "type": "Point", "coordinates": [ -58.404877, -34.634559 ] } },
{ "type": "Feature", "properties": { "nro": 55, "empresa": "OPEN COMPUTACIÓN", "origen": "Nac.", "sector": "SOFTWARE", "gradoAvanc": "En Operación", "direccion": "CATAMARCA 1985", "direccion2": "CATAMARCA 1985", "latitud": -34.632991, "longitud": -58.401735, "g_lat": -34.6330288, "g_lon": -58.4017646 }, "geometry": { "type": "Point", "coordinates": [ -58.401735, -34.632991 ] } },
{ "type": "Feature", "properties": { "nro": 56, "empresa": "HORWATH CAPITAL INTELECTUAL", "origen": "Nac.", "sector": "BPO", "gradoAvanc": "En Obra", "direccion": "Patagones 2937 PISO 5", "direccion2": "PATAGONES 2937", "latitud": -34.638074, "longitud": -58.40423, "g_lat": -34.6380375, "g_lon": -58.4041992 }, "geometry": { "type": "Point", "coordinates": [ -58.40423, -34.638074 ] } },
{ "type": "Feature", "properties": { "nro": 60, "empresa": "GENERAL PLASTIC CORP", "origen": "Nac.", "sector": "BPO", "gradoAvanc": "En Operación", "direccion": "LOS PATOS 2526\/2532", "direccion2": "LOS PATOS 2526", "latitud": -34.63922, "longitud": -58.39663, "g_lat": -34.6392514, "g_lon": -58.3965336 }, "geometry": { "type": "Point", "coordinates": [ -58.39663, -34.63922 ] } },
{ "type": "Feature", "properties": { "nro": 61, "empresa": "NITIS", "origen": "Nac.", "sector": "SOFTWARE", "gradoAvanc": "En Operación", "direccion": "BRASIL 2883", "direccion2": "AV. BRASIL 2883", "latitud": -34.632971, "longitud": -58.404237, "g_lat": -34.633032, "g_lon": -58.4043622 }, "geometry": { "type": "Point", "coordinates": [ -58.404237, -34.632971 ] } },
{ "type": "Feature", "properties": { "nro": 62, "empresa": "VIDEOSWITCH", "origen": "Nac.", "sector": "HARDWARE", "gradoAvanc": "En Operación", "direccion": "USPALLATA 3579", "direccion2": "USPALLATA 3579", "latitud": -34.64106, "longitud": -58.413571, "g_lat": -34.6410744, "g_lon": -58.4135562 }, "geometry": { "type": "Point", "coordinates": [ -58.413571, -34.64106 ] } },
{ "type": "Feature", "properties": { "nro": 63, "empresa": "DESPEGAR.COM", "origen": "Ext.", "sector": "e-COMMERCE", "gradoAvanc": "En Operación", "direccion": "AV. JUJUY 2013\/16", "direccion2": "AV. JUJUY 2013", "latitud": -34.633985, "longitud": -58.399706, "g_lat": -34.6340645, "g_lon": -58.3997839 }, "geometry": { "type": "Point", "coordinates": [ -58.399706, -34.633985 ] } },
{ "type": "Feature", "properties": { "nro": 65, "empresa": "GEOSYSTEMS", "origen": "Nac.", "sector": "SOFTWARE", "gradoAvanc": "En Operación", "direccion": "ESTEBAN DE LUCA 2223", "direccion2": "ESTEBAN DE LUCA 2223", "latitud": -34.635719, "longitud": -58.402374, "g_lat": -34.6355649, "g_lon": -58.4024218 }, "geometry": { "type": "Point", "coordinates": [ -58.402374, -34.635719 ] } },
{ "type": "Feature", "properties": { "nro": 66, "empresa": "REPORTE INFORMATIVO", "origen": "Nac.", "sector": "SOFTWARE", "gradoAvanc": "En Operación", "direccion": "ZAVALETA 219", "direccion2": "ZAVALETA 219", "latitud": -34.639566, "longitud": -58.403233, "g_lat": -34.6394495, "g_lon": -58.4032842 }, "geometry": { "type": "Point", "coordinates": [ -58.403233, -34.639566 ] } },
{ "type": "Feature", "properties": { "nro": 67, "empresa": "DELFAU", "origen": "Nac.", "sector": "SOFTWARE", "gradoAvanc": "En Operación", "direccion": "MANUEL GARCIA 276", "direccion2": "MANUEL GARCIA 276", "latitud": -34.638735, "longitud": -58.396211, "g_lat": -34.6387124, "g_lon": -58.3962531 }, "geometry": { "type": "Point", "coordinates": [ -58.396211, -34.638735 ] } },
{ "type": "Feature", "properties": { "nro": 68, "empresa": "BUFFA SISTEMAS", "origen": "Nac.", "sector": "SOFTWARE", "gradoAvanc": "En Operación", "direccion": "CASEROS 3227 PISO 7A", "direccion2": "AV. CASEROS 3227", "latitud": -34.637758, "longitud": -58.409748, "g_lat": -34.6377278, "g_lon": -58.40985 }, "geometry": { "type": "Point", "coordinates": [ -58.409748, -34.637758 ] } },
{ "type": "Feature", "properties": { "nro": 69, "empresa": "FULLTRACE", "origen": "Nac.", "sector": "SOFTWARE", "gradoAvanc": "En Operación", "direccion": "AV. COLONIA 370", "direccion2": "AV. COLONIA 370", "latitud": -34.640319, "longitud": -58.397036, "g_lat": -34.6404546, "g_lon": -58.3970665 }, "geometry": { "type": "Point", "coordinates": [ -58.397036, -34.640319 ] } },
{ "type": "Feature", "properties": { "nro": 70, "empresa": "GC GESTIÓN COMPARTIDA", "origen": "Nac.", "sector": "BPO", "gradoAvanc": "En Operación", "direccion": "PATAGONES 2548\/50", "direccion2": "PATAGONES 2548", "latitud": -34.636902, "longitud": -58.397751, "g_lat": -34.6368703, "g_lon": -58.3976161 }, "geometry": { "type": "Point", "coordinates": [ -58.397751, -34.636902 ] } },
{ "type": "Feature", "properties": { "nro": 72, "empresa": "IPLAN", "origen": "Nac.", "sector": "DATA CENTER", "gradoAvanc": "En Operación", "direccion": "LOS PATOS 2948", "direccion2": "LOS PATOS 2948", "latitud": -34.640754, "longitud": -58.403822, "g_lat": -34.6407055, "g_lon": -58.4038399 }, "geometry": { "type": "Point", "coordinates": [ -58.403822, -34.640754 ] } },
{ "type": "Feature", "properties": { "nro": 73, "empresa": "GOODWELL SOFTWARE ARGENTINA", "origen": "Nac.", "sector": "SOFTWARE", "gradoAvanc": "En Operación", "direccion": "ARRIOLA 49", "direccion2": "ARRIOLA 49", "latitud": -34.637265, "longitud": -58.402883, "g_lat": -34.6372953, "g_lon": -58.4028672 }, "geometry": { "type": "Point", "coordinates": [ -58.402883, -34.637265 ] } },
{ "type": "Feature", "properties": { "nro": 74, "empresa": "SYNCHRO TECNH", "origen": "Nac.", "sector": "SOFTWARE", "gradoAvanc": "En Operación", "direccion": "IGUAZÚ 280", "direccion2": "IGUAZÚ 280", "latitud": -34.640981, "longitud": -58.406286, "g_lat": -34.6409237, "g_lon": -58.406265 }, "geometry": { "type": "Point", "coordinates": [ -58.406286, -34.640981 ] } },
{ "type": "Feature", "properties": { "nro": 75, "empresa": "TEKII", "origen": "Nac.", "sector": "SOFTWARE", "gradoAvanc": "En Operación", "direccion": "ELIA 551", "direccion2": "ELIA 551", "latitud": -34.644427, "longitud": -58.408508, "g_lat": -34.6444462, "g_lon": -58.4084895 }, "geometry": { "type": "Point", "coordinates": [ -58.408508, -34.644427 ] } },
{ "type": "Feature", "properties": { "nro": 76, "empresa": "NOVASYS", "origen": "Nac.", "sector": "SOFTWARE", "gradoAvanc": "En Operación", "direccion": "JUJUY 1875 PISO 7", "direccion2": "AV. JUJUY 1875", "latitud": -34.632356, "longitud": -58.400354, "g_lat": -34.6323198, "g_lon": -58.4003103 }, "geometry": { "type": "Point", "coordinates": [ -58.400354, -34.632356 ] } },
{ "type": "Feature", "properties": { "nro": 77, "empresa": "GRUPO NET", "origen": "Nac.", "sector": "SOFTWARE", "gradoAvanc": "En Operación", "direccion": "DEAN FUNES 1960", "direccion2": "DEAN FUNES 1960", "latitud": -34.633834, "longitud": -58.40435, "g_lat": -34.6338818, "g_lon": -58.4044517 }, "geometry": { "type": "Point", "coordinates": [ -58.40435, -34.633834 ] } },
{ "type": "Feature", "properties": { "nro": 78, "empresa": "CIRCO STUDIO", "origen": "Nac.", "sector": "SOFTWARE", "gradoAvanc": "En Operación", "direccion": "JUJUY 2073 PISO 1", "direccion2": "AV. JUJUY 2073", "latitud": -34.634417, "longitud": -58.399532, "g_lat": -34.634497, "g_lon": -58.3995012 }, "geometry": { "type": "Point", "coordinates": [ -58.399532, -34.634417 ] } },
{ "type": "Feature", "properties": { "nro": 79, "empresa": "SISTEMAS PARA BANCOS", "origen": "Nac.", "sector": "SOFTWARE", "gradoAvanc": "En Operación", "direccion": "VIRREY LINIERS 2351", "direccion2": "VIRREY LINIERS 2351", "latitud": -34.637602, "longitud": -58.411839, "g_lat": -34.6375782, "g_lon": -58.4118206 }, "geometry": { "type": "Point", "coordinates": [ -58.411839, -34.637602 ] } },
{ "type": "Feature", "properties": { "nro": 80, "empresa": "TESIS OYS", "origen": "Nac.", "sector": "SOFTWARE", "gradoAvanc": "En Operación", "direccion": "CASEROS 3411 PISO 7", "direccion2": "AV. CASEROS 3411", "latitud": -34.638418, "longitud": -58.413499, "g_lat": -34.6383388, "g_lon": -58.4135773 }, "geometry": { "type": "Point", "coordinates": [ -58.413499, -34.638418 ] } },
{ "type": "Feature", "properties": { "nro": 81, "empresa": "ABACO", "origen": "Nac.", "sector": "BPO", "gradoAvanc": "En Operación", "direccion": "JUJUY 1875 PISO 6B", "direccion2": "AV. JUJUY 1875", "latitud": -34.632356, "longitud": -58.400354, "g_lat": -34.6323198, "g_lon": -58.4003103 }, "geometry": { "type": "Point", "coordinates": [ -58.400354, -34.632356 ] } },
{ "type": "Feature", "properties": { "nro": 82, "empresa": "VR4", "origen": "Nac.", "sector": "SOFTWARE", "gradoAvanc": "En Operación", "direccion": "JUJUY 1963 PISO 2B", "direccion2": "AV. JUJUY 1963", "latitud": -34.633398, "longitud": -58.399942, "g_lat": -34.6333204, "g_lon": -58.3999378 }, "geometry": { "type": "Point", "coordinates": [ -58.399942, -34.633398 ] } },
{ "type": "Feature", "properties": { "nro": 83, "empresa": "E-BUY PLACE", "origen": "Nac.", "sector": "SOFTWARE", "gradoAvanc": "En Operación", "direccion": "MONTEAGUDO 146", "direccion2": "MONTEAGUDO 146", "latitud": -34.638881, "longitud": -58.405211, "g_lat": -34.6388603, "g_lon": -58.4051891 }, "geometry": { "type": "Point", "coordinates": [ -58.405211, -34.638881 ] } },
{ "type": "Feature", "properties": { "nro": 84, "empresa": "PEDIATRIC CARE", "origen": "Nac.", "sector": "SOFTWARE", "gradoAvanc": "En operación", "direccion": "RONDEAU 2520", "direccion2": "RONDEAU 2520", "latitud": -34.634612, "longitud": -58.398177, "g_lat": -34.6345677, "g_lon": -58.3982191 }, "geometry": { "type": "Point", "coordinates": [ -58.398177, -34.634612 ] } },
{ "type": "Feature", "properties": { "nro": 85, "empresa": "MOVIL CARGA", "origen": "Nac.", "sector": "BPO", "gradoAvanc": "En Operación", "direccion": "DEAN FUNES 2077", "direccion2": "DEAN FUNES 2077", "latitud": -34.635192, "longitud": -58.404191, "g_lat": -34.6352247, "g_lon": -58.4042207 }, "geometry": { "type": "Point", "coordinates": [ -58.404191, -34.635192 ] } },
{ "type": "Feature", "properties": { "nro": 86, "empresa": "IADEV", "origen": "Nac.", "sector": "BPO", "gradoAvanc": "En Operación", "direccion": "RONDEAU 3124", "direccion2": "RONDEAU 3124", "latitud": -34.636514, "longitud": -58.40818, "g_lat": -34.6364682, "g_lon": -58.4081055 }, "geometry": { "type": "Point", "coordinates": [ -58.40818, -34.636514 ] } },
{ "type": "Feature", "properties": { "nro": 87, "empresa": "LAKAUT", "origen": "Nac.", "sector": "BPO", "gradoAvanc": "En Operación", "direccion": "CASEROS 3371", "direccion2": "AV. CASEROS 3371", "latitud": -34.638255, "longitud": -58.412666, "g_lat": -34.6383112, "g_lon": -58.4126494 }, "geometry": { "type": "Point", "coordinates": [ -58.412666, -34.638255 ] } },
{ "type": "Feature", "properties": { "nro": 90, "empresa": "PAY-U LATAM", "origen": "Ext.", "sector": "e-COMMERCE", "gradoAvanc": "En Operación", "direccion": "RONDEAU 2664 PISO 2.", "direccion2": "RONDEAU 2664", "latitud": -34.634976, "longitud": -58.400256, "g_lat": -34.6349489, "g_lon": -58.4003402 }, "geometry": { "type": "Point", "coordinates": [ -58.400256, -34.634976 ] } },
{ "type": "Feature", "properties": { "nro": 91, "empresa": "TEKNARIA", "origen": "Nac.", "sector": "BPO", "gradoAvanc": "En Operación", "direccion": "CASEROS 3405 PISO 1.", "direccion2": "AV. CASEROS 3405", "latitud": -34.638397, "longitud": -58.413379, "g_lat": -34.6384366, "g_lon": -58.4133676 }, "geometry": { "type": "Point", "coordinates": [ -58.413379, -34.638397 ] } },
{ "type": "Feature", "properties": { "nro": 93, "empresa": "EXISOFT", "origen": "Nac.", "sector": "SOFTWARE", "gradoAvanc": "En Operación", "direccion": "MONTEAGUDO 252", "direccion2": "MONTEAGUDO 252", "latitud": -34.640493, "longitud": -58.404918, "g_lat": -34.6404693, "g_lon": -58.4049542 }, "geometry": { "type": "Point", "coordinates": [ -58.404918, -34.640493 ] } },
{ "type": "Feature", "properties": { "nro": 94, "empresa": "ASSERT SOLUTIONS", "origen": "Nac.", "sector": "SOFTWARE", "gradoAvanc": "En Operación", "direccion": "CATULO CASTILLO 2630 PISO 3", "direccion2": "CATULO CASTILLO 2630", "latitud": -34.63289, "longitud": -58.400638, "g_lat": -34.6329011, "g_lon": -58.4006107 }, "geometry": { "type": "Point", "coordinates": [ -58.400638, -34.63289 ] } },
{ "type": "Feature", "properties": { "nro": 96, "empresa": "DPS SISTEMAS", "origen": "Nac.", "sector": "SOFTWARE", "gradoAvanc": "En Operación", "direccion": "PATAGONES 2559 PB DEPT. 2", "direccion2": "PATAGONES 2559", "latitud": -34.636823, "longitud": -58.397852, "g_lat": -34.6367839, "g_lon": -58.397826 }, "geometry": { "type": "Point", "coordinates": [ -58.397852, -34.636823 ] } },
{ "type": "Feature", "properties": { "nro": 97, "empresa": "DIGITAL FILE", "origen": "Nac.", "sector": "BPO", "gradoAvanc": "En Operación", "direccion": "JUJUY 1963 PISO 8 OFIC. B", "direccion2": "AV. JUJUY 1963", "latitud": -34.633398, "longitud": -58.399942, "g_lat": -34.6333204, "g_lon": -58.3999378 }, "geometry": { "type": "Point", "coordinates": [ -58.399942, -34.633398 ] } },
{ "type": "Feature", "properties": { "nro": 98, "empresa": "LUGALU", "origen": "Nac.", "sector": "SOFTWARE", "gradoAvanc": "En Operación", "direccion": "MONTEAGUDO 532\/536", "direccion2": "MONTEAGUDO 532", "latitud": -34.643831, "longitud": -58.404238, "g_lat": -34.6437479, "g_lon": -58.4043506 }, "geometry": { "type": "Point", "coordinates": [ -58.404238, -34.643831 ] } },
{ "type": "Feature", "properties": { "nro": 99, "empresa": "SGB INFORMATION SERVICES", "origen": "Nac.", "sector": "BPO", "gradoAvanc": "En Operación", "direccion": "PEPIRI 286", "direccion2": "PEPIRI 286", "latitud": -34.641504, "longitud": -58.409031, "g_lat": -34.6414794, "g_lon": -58.409062 }, "geometry": { "type": "Point", "coordinates": [ -58.409031, -34.641504 ] } },
{ "type": "Feature", "properties": { "nro": 100, "empresa": "BUMERAN", "origen": "Nac.", "sector": "e-COMMERCE", "gradoAvanc": "En Operación", "direccion": "RONDEAU 2664 PISO 4", "direccion2": "RONDEAU 2664", "latitud": -34.634976, "longitud": -58.400256, "g_lat": -34.6349489, "g_lon": -58.4003402 }, "geometry": { "type": "Point", "coordinates": [ -58.400256, -34.634976 ] } },
{ "type": "Feature", "properties": { "nro": 101, "empresa": "UNIVERSOBIT", "origen": "Nac.", "sector": "SOFTWARE", "gradoAvanc": "En Operación", "direccion": "RONDEAU 2664 PISO 3", "direccion2": "RONDEAU 2664", "latitud": -34.634976, "longitud": -58.400256, "g_lat": -34.6349489, "g_lon": -58.4003402 }, "geometry": { "type": "Point", "coordinates": [ -58.400256, -34.634976 ] } },
{ "type": "Feature", "properties": { "nro": 102, "empresa": "SITEPRO", "origen": "Nac.", "sector": "SOFTWARE", "gradoAvanc": "En Operación", "direccion": "CATULO CASTILLO 2630 PISO 2A", "direccion2": "CATULO CASTILLO 2630", "latitud": -34.63289, "longitud": -58.400638, "g_lat": -34.6329011, "g_lon": -58.4006107 }, "geometry": { "type": "Point", "coordinates": [ -58.400638, -34.63289 ] } },
{ "type": "Feature", "properties": { "nro": 103, "empresa": "SERDATA", "origen": "Nac.", "sector": "SOFTWARE", "gradoAvanc": "En Operación", "direccion": "PATAGONES 2750", "direccion2": "PATAGONES 2750", "latitud": -34.637495, "longitud": -58.400901, "g_lat": -34.6375251, "g_lon": -58.4006418 }, "geometry": { "type": "Point", "coordinates": [ -58.400901, -34.637495 ] } },
{ "type": "Feature", "properties": { "nro": 104, "empresa": "INFOGESTION BRANCHT", "origen": "Nac.", "sector": "BPO", "gradoAvanc": "En Operación", "direccion": "CATULO CASTILLO 2630 PISO 1", "direccion2": "CATULO CASTILLO 2630", "latitud": -34.63289, "longitud": -58.400638, "g_lat": -34.6329011, "g_lon": -58.4006107 }, "geometry": { "type": "Point", "coordinates": [ -58.400638, -34.63289 ] } },
{ "type": "Feature", "properties": { "nro": 105, "empresa": "NET SERVICES", "origen": "Nac.", "sector": "SOFTWARE", "gradoAvanc": "En Operación", "direccion": "LA RIOJA 2011 PB", "direccion2": "LA RIOJA 2011", "latitud": -34.634845, "longitud": -58.405875, "g_lat": -34.6349557, "g_lon": -58.4059878 }, "geometry": { "type": "Point", "coordinates": [ -58.405875, -34.634845 ] } },
{ "type": "Feature", "properties": { "nro": 106, "empresa": "STAFFING IT", "origen": "Nac.", "sector": "SOFTWARE", "gradoAvanc": "En Operación", "direccion": "Manuel Garcia 50, PISO 1", "direccion2": "MANUEL GARCIA 50", "latitud": -34.636214, "longitud": -58.39716, "g_lat": -34.6362024, "g_lon": -58.3971241 }, "geometry": { "type": "Point", "coordinates": [ -58.39716, -34.636214 ] } },
{ "type": "Feature", "properties": { "nro": 107, "empresa": "m2-MARKETINMETRICS", "origen": "Nac.", "sector": "BPO", "gradoAvanc": "En Operación", "direccion": "LUNA 17 PISO 5", "direccion2": "LUNA 17", "latitud": -34.636532, "longitud": -58.400428, "g_lat": -34.6365061, "g_lon": -58.4003738 }, "geometry": { "type": "Point", "coordinates": [ -58.400428, -34.636532 ] } },
{ "type": "Feature", "properties": { "nro": 108, "empresa": "ADP CONSULTORES", "origen": "Ext.", "sector": "BPO", "gradoAvanc": "En Operación", "direccion": "CASEROS 3392", "direccion2": "AV. CASEROS 3392", "latitud": -34.638467, "longitud": -58.412944, "g_lat": -34.638501, "g_lon": -58.4129369 }, "geometry": { "type": "Point", "coordinates": [ -58.412944, -34.638467 ] } },
{ "type": "Feature", "properties": { "nro": 110, "empresa": "TELINFOR", "origen": "Nac.", "sector": "BPO", "gradoAvanc": "En operación", "direccion": "CATULO CASTILLO 2630 PISO 2B", "direccion2": "CATULO CASTILLO 2630", "latitud": -34.63289, "longitud": -58.400638, "g_lat": -34.6329011, "g_lon": -58.4006107 }, "geometry": { "type": "Point", "coordinates": [ -58.400638, -34.63289 ] } },
{ "type": "Feature", "properties": { "nro": 112, "empresa": "QUASS SRL", "origen": "Nac.", "sector": "SOFTWARE", "gradoAvanc": "En Operación", "direccion": "Jujuy 1963, piso 6to B", "direccion2": "AV. JUJUY 1963", "latitud": -34.633398, "longitud": -58.399942, "g_lat": -34.6333204, "g_lon": -58.3999378 }, "geometry": { "type": "Point", "coordinates": [ -58.399942, -34.633398 ] } },
{ "type": "Feature", "properties": { "nro": 113, "empresa": "B2CLOUD", "origen": "Nac.", "sector": "BPO", "gradoAvanc": "En Operación", "direccion": "Jujuy 1963, piso 3ro B", "direccion2": "AV. JUJUY 1963", "latitud": -34.633398, "longitud": -58.399942, "g_lat": -34.6333204, "g_lon": -58.3999378 }, "geometry": { "type": "Point", "coordinates": [ -58.399942, -34.633398 ] } },
{ "type": "Feature", "properties": { "nro": 114, "empresa": "POSNET", "origen": "Ext.", "sector": "DATA CENTER", "gradoAvanc": "En Operación", "direccion": "RONDEAU 3439\/59", "direccion2": "RONDEAU 3439", "latitud": -34.637033, "longitud": -58.41272, "g_lat": -34.6368103, "g_lon": -58.4128125 }, "geometry": { "type": "Point", "coordinates": [ -58.41272, -34.637033 ] } },
{ "type": "Feature", "properties": { "nro": 115, "empresa": "FIRST DATA", "origen": "Ext.", "sector": "DATA CENTER", "gradoAvanc": "En Operación", "direccion": "RONDEAU 3439\/59", "direccion2": "RONDEAU 3439", "latitud": -34.637033, "longitud": -58.41272, "g_lat": -34.6368103, "g_lon": -58.4128125 }, "geometry": { "type": "Point", "coordinates": [ -58.41272, -34.637033 ] } },
{ "type": "Feature", "properties": { "nro": 116, "empresa": "TR ARGENTINA", "origen": "Nac.", "sector": "BPO", "gradoAvanc": "En Operación", "direccion": "CATULO CASTILLO 2630 PISO 3A", "direccion2": "CATULO CASTILLO 2630", "latitud": -34.63289, "longitud": -58.400638, "g_lat": -34.6329011, "g_lon": -58.4006107 }, "geometry": { "type": "Point", "coordinates": [ -58.400638, -34.63289 ] } },
{ "type": "Feature", "properties": { "nro": 117, "empresa": "POWER CONSULTANT", "origen": "Nac.", "sector": "BPO", "gradoAvanc": "En Operación", "direccion": "GRITO DE ASENCIO 3650", "direccion2": "GRITO DE ASENCIO 3650", "latitud": -34.647991, "longitud": -58.412996, "g_lat": -34.6479518, "g_lon": -58.4129726 }, "geometry": { "type": "Point", "coordinates": [ -58.412996, -34.647991 ] } },
{ "type": "Feature", "properties": { "nro": 118, "empresa": "CONSULTORA NÚCLEO", "origen": "Nac.", "sector": "BPO", "gradoAvanc": "En Operación", "direccion": "CASEROS 3405 PISO 5", "direccion2": "AV. CASEROS 3405", "latitud": -34.638397, "longitud": -58.413379, "g_lat": -34.6384366, "g_lon": -58.4133676 }, "geometry": { "type": "Point", "coordinates": [ -58.413379, -34.638397 ] } },
{ "type": "Feature", "properties": { "nro": 119, "empresa": "PAGUSTECH", "origen": "Nac.", "sector": "SOFTWARE", "gradoAvanc": "En Operación", "direccion": "CASEROS 3227 PISO 6C", "direccion2": "AV. CASEROS 3227", "latitud": -34.637758, "longitud": -58.409748, "g_lat": -34.6377278, "g_lon": -58.40985 }, "geometry": { "type": "Point", "coordinates": [ -58.409748, -34.637758 ] } },
{ "type": "Feature", "properties": { "nro": 120, "empresa": "GRUPO TBT", "origen": "Nac.", "sector": "SOFTWARE", "gradoAvanc": "En Operación", "direccion": "JUJUY 1963 PISO 3B", "direccion2": "AV. JUJUY 1963", "latitud": -34.633398, "longitud": -58.399942, "g_lat": -34.6333204, "g_lon": -58.3999378 }, "geometry": { "type": "Point", "coordinates": [ -58.399942, -34.633398 ] } },
{ "type": "Feature", "properties": { "nro": 121, "empresa": "DARUMA", "origen": "Nac.", "sector": "SOFTWARE", "gradoAvanc": "En Operación", "direccion": "JUJUY 1915 PISO 6B", "direccion2": "AV. JUJUY 1915", "latitud": -34.632942, "longitud": -58.400126, "g_lat": -34.6328125, "g_lon": -58.4001099 }, "geometry": { "type": "Point", "coordinates": [ -58.400126, -34.632942 ] } },
{ "type": "Feature", "properties": { "nro": 122, "empresa": "COVEDISA", "origen": "Nac.", "sector": "BPO", "gradoAvanc": "En Operación", "direccion": "USPALLATA 2953", "direccion2": "USPALLATA 2953", "latitud": -34.639371, "longitud": -58.404205, "g_lat": -34.6393958, "g_lon": -58.4042745 }, "geometry": { "type": "Point", "coordinates": [ -58.404205, -34.639371 ] } },
{ "type": "Feature", "properties": { "nro": 123, "empresa": "SILK TECH", "origen": "Nac.", "sector": "BPO", "gradoAvanc": "En Obra", "direccion": "Av. Caseros 2602, piso 8", "direccion2": "AV. CASEROS 2602", "latitud": -34.636011, "longitud": -58.399064, "g_lat": -34.6359238, "g_lon": -58.3988878 }, "geometry": { "type": "Point", "coordinates": [ -58.399064, -34.636011 ] } },
{ "type": "Feature", "properties": { "nro": 124, "empresa": "DAEVA", "origen": "Nac.", "sector": "SOFTWARE", "gradoAvanc": "En Operación", "direccion": "Pedro Chutro 3135 , oficina 101\/102", "direccion2": "PEDRO CHUTRO 3135", "latitud": -34.642325, "longitud": -58.406697, "g_lat": -34.6423478, "g_lon": -58.4066662 }, "geometry": { "type": "Point", "coordinates": [ -58.406697, -34.642325 ] } },
{ "type": "Feature", "properties": { "nro": 125, "empresa": "NEC", "origen": "Nac.", "sector": "HARDWARE", "gradoAvanc": "En Operación", "direccion": "ATUEL 471", "direccion2": "ATUEL 471", "latitud": -34.643403, "longitud": -58.40727, "g_lat": -34.6433899, "g_lon": -58.4073412 }, "geometry": { "type": "Point", "coordinates": [ -58.40727, -34.643403 ] } },
{ "type": "Feature", "properties": { "nro": 126, "empresa": "TI SISTEMAS", "origen": "Nac.", "sector": "BPO", "gradoAvanc": "En operación", "direccion": "RONDEAU 2664 PISO 5B.", "direccion2": "RONDEAU 2664", "latitud": -34.634976, "longitud": -58.400256, "g_lat": -34.6349489, "g_lon": -58.4003402 }, "geometry": { "type": "Point", "coordinates": [ -58.400256, -34.634976 ] } },
{ "type": "Feature", "properties": { "nro": 127, "empresa": "SIF AMERICA", "origen": "Nac.", "sector": "SOFTWARE", "gradoAvanc": "En Operación", "direccion": "DR. PEDRO CHUTRO 3135", "direccion2": "DR. PEDRO CHUTRO 3135", "latitud": -34.642325, "longitud": -58.406697, "g_lat": -34.6423478, "g_lon": -58.4066662 }, "geometry": { "type": "Point", "coordinates": [ -58.406697, -34.642325 ] } },
{ "type": "Feature", "properties": { "nro": 128, "empresa": "GLD CONSULTORES", "origen": "Nac.", "sector": "SOFTWARE", "gradoAvanc": "En Operación", "direccion": "CASEROS 3405 PISO 3.", "direccion2": "AV. CASEROS 3405", "latitud": -34.638397, "longitud": -58.413379, "g_lat": -34.6384366, "g_lon": -58.4133676 }, "geometry": { "type": "Point", "coordinates": [ -58.413379, -34.638397 ] } },
{ "type": "Feature", "properties": { "nro": 129, "empresa": "MOVILGATE", "origen": "Nac.", "sector": "SOFTWARE", "gradoAvanc": "En Operación", "direccion": "PATAGONES 2827 PISO 5.", "direccion2": "PATAGONES 2827", "latitud": -34.637695, "longitud": -58.402283, "g_lat": -34.637673, "g_lon": -58.402214 }, "geometry": { "type": "Point", "coordinates": [ -58.402283, -34.637695 ] } },
{ "type": "Feature", "properties": { "nro": 130, "empresa": "TELEFONICA GLOBAL TECHNOLOGY", "origen": "Ext.", "sector": "BPO", "gradoAvanc": "En Operación", "direccion": "CHICLANA 3345", "direccion2": "CHICLANA 3345", "latitud": -34.63447, "longitud": -58.411518, "g_lat": -34.6344402, "g_lon": -58.4119357 }, "geometry": { "type": "Point", "coordinates": [ -58.411518, -34.63447 ] } },
{ "type": "Feature", "properties": { "nro": 131, "empresa": "AIV (Central de pasajes)", "origen": "Nac.", "sector": "e-COMMERCE", "gradoAvanc": "En Operación", "direccion": "AMANCIO ALCORTA 2801", "direccion2": "AMANCIO ALCORTA 2801", "latitud": -34.644872, "longitud": -58.400863, "g_lat": -34.644923, "g_lon": -58.4009322 }, "geometry": { "type": "Point", "coordinates": [ -58.400863, -34.644872 ] } },
{ "type": "Feature", "properties": { "nro": 132, "empresa": "DAXA", "origen": "Ext.", "sector": "SOFTWARE", "gradoAvanc": "En Obra", "direccion": "Av. Caseros 2602, piso 8", "direccion2": "AV. CASEROS 2602", "latitud": -34.636011, "longitud": -58.399064, "g_lat": -34.6359238, "g_lon": -58.3988878 }, "geometry": { "type": "Point", "coordinates": [ -58.399064, -34.636011 ] } },
{ "type": "Feature", "properties": { "nro": 133, "empresa": "CENTRY SA", "origen": "Nac.", "sector": "HARDWARE", "gradoAvanc": "En Operación", "direccion": "Cachi 774\/776", "direccion2": "CACHI 774", "latitud": -34.651746, "longitud": -58.410991, "g_lat": -34.6517679, "g_lon": -58.4110255 }, "geometry": { "type": "Point", "coordinates": [ -58.410991, -34.651746 ] } },
{ "type": "Feature", "properties": { "nro": 134, "empresa": "BIBLOS", "origen": "Nac.", "sector": "BPO", "gradoAvanc": "En Operación", "direccion": "CHICLANA 3345 PISO 6.", "direccion2": "CHICLANA 3345", "latitud": -34.63447, "longitud": -58.411518, "g_lat": -34.6344402, "g_lon": -58.4119357 }, "geometry": { "type": "Point", "coordinates": [ -58.411518, -34.63447 ] } },
{ "type": "Feature", "properties": { "nro": 135, "empresa": "AVANTRIP", "origen": "Nac.", "sector": "BPO", "gradoAvanc": "En Operación", "direccion": "CHICLANA 3345 PISO 7.", "direccion2": "CHICLANA 3345", "latitud": -34.63447, "longitud": -58.411518, "g_lat": -34.6344402, "g_lon": -58.4119357 }, "geometry": { "type": "Point", "coordinates": [ -58.411518, -34.63447 ] } },
{ "type": "Feature", "properties": { "nro": 136, "empresa": "OVERNET", "origen": "Nac.", "sector": "SOFTWARE", "gradoAvanc": "En Operación", "direccion": "JUJUY 1875, 2do piso", "direccion2": "AV. JUJUY 1875", "latitud": -34.632356, "longitud": -58.400354, "g_lat": -34.6323198, "g_lon": -58.4003103 }, "geometry": { "type": "Point", "coordinates": [ -58.400354, -34.632356 ] } },
{ "type": "Feature", "properties": { "nro": 137, "empresa": "ADMINISTRADORA DE MONEDEROS ELECTRONICOS (AME)", "origen": "Nac.", "sector": "BPO", "gradoAvanc": "En Operación", "direccion": "MANUEL GARCIA 50 PISO 2.", "direccion2": "MANUEL GARCIA 50", "latitud": -34.636214, "longitud": -58.39716, "g_lat": -34.6362024, "g_lon": -58.3971241 }, "geometry": { "type": "Point", "coordinates": [ -58.39716, -34.636214 ] } },
{ "type": "Feature", "properties": { "nro": 138, "empresa": "SOLUCIONES WORKOUT", "origen": "Nac.", "sector": "SOFTWARE", "gradoAvanc": "En Obra", "direccion": "24 DE NOVIEMBRE 2115", "direccion2": "24 DE NOVIEMBRE 2115", "latitud": -34.63574, "longitud": -58.409296, "g_lat": -34.6365067, "g_lon": -58.4091427 }, "geometry": { "type": "Point", "coordinates": [ -58.409296, -34.63574 ] } },
{ "type": "Feature", "properties": { "nro": 139, "empresa": "SOF TUR", "origen": "Nac.", "sector": "SOFTWARE", "gradoAvanc": "En Operación", "direccion": "ACHALA 3527", "direccion2": "ACHALA 3527", "latitud": -34.642636, "longitud": -58.413688, "g_lat": -34.6426795, "g_lon": -58.4137106 }, "geometry": { "type": "Point", "coordinates": [ -58.413688, -34.642636 ] } },
{ "type": "Feature", "properties": { "nro": 140, "empresa": "CORPORATE CORP", "origen": "Nac.", "sector": "HARDWARE", "gradoAvanc": "En Operación", "direccion": "PUNA 3540", "direccion2": "PUNA 3540", "latitud": -34.641642, "longitud": -58.41344, "g_lat": -34.6416178, "g_lon": -58.4134113 }, "geometry": { "type": "Point", "coordinates": [ -58.41344, -34.641642 ] } },
{ "type": "Feature", "properties": { "nro": 141, "empresa": "BAITCON", "origen": "Nac.", "sector": "BPO", "gradoAvanc": "En Operación", "direccion": "CATULO CASTILLO 3250 A.", "direccion2": "CATULO CASTILLO 3250", "latitud": -34.635657, "longitud": -58.410028, "g_lat": -34.6356116, "g_lon": -58.4099686 }, "geometry": { "type": "Point", "coordinates": [ -58.410028, -34.635657 ] } },
{ "type": "Feature", "properties": { "nro": 142, "empresa": "INTERSERVICES CONSULTING", "origen": "Nac.", "sector": "BPO", "gradoAvanc": "En Operación", "direccion": "CATULO CASTILLO 3250 B.", "direccion2": "CATULO CASTILLO 3250", "latitud": -34.635657, "longitud": -58.410028, "g_lat": -34.6356116, "g_lon": -58.4099686 }, "geometry": { "type": "Point", "coordinates": [ -58.410028, -34.635657 ] } },
{ "type": "Feature", "properties": { "nro": 145, "empresa": "RENXO", "origen": "Nac.", "sector": "SOFTWARE", "gradoAvanc": "En Operación", "direccion": "CASEROS 3405 PISO 4.", "direccion2": "AV. CASEROS 3405", "latitud": -34.638397, "longitud": -58.413379, "g_lat": -34.6384366, "g_lon": -58.4133676 }, "geometry": { "type": "Point", "coordinates": [ -58.413379, -34.638397 ] } },
{ "type": "Feature", "properties": { "nro": 146, "empresa": "AKAROMSOFT", "origen": "Nac.", "sector": "SOFTWARE", "gradoAvanc": "En Operación", "direccion": "AV. JUJUY 1963 PISO 9C.", "direccion2": "AV. JUJUY 1963", "latitud": -34.633398, "longitud": -58.399942, "g_lat": -34.6333204, "g_lon": -58.3999378 }, "geometry": { "type": "Point", "coordinates": [ -58.399942, -34.633398 ] } },
{ "type": "Feature", "properties": { "nro": 147, "empresa": "TMF ARGENTINA", "origen": "Ext.", "sector": "BPO", "gradoAvanc": "En Operación", "direccion": "CHICLANA 3345 PISO 4º y 5º.", "direccion2": "CHICLANA 3345", "latitud": -34.63447, "longitud": -58.411518, "g_lat": -34.6344402, "g_lon": -58.4119357 }, "geometry": { "type": "Point", "coordinates": [ -58.411518, -34.63447 ] } },
{ "type": "Feature", "properties": { "nro": 148, "empresa": "VALID", "origen": "Ext.", "sector": "BPO", "gradoAvanc": "En Operación", "direccion": "JOSE C. PAZ 3640 PB", "direccion2": "JOSE C. PAZ 3640", "latitud": -34.645734, "longitud": -58.413584, "g_lat": -34.6457829, "g_lon": -58.4135821 }, "geometry": { "type": "Point", "coordinates": [ -58.413584, -34.645734 ] } },
{ "type": "Feature", "properties": { "nro": 149, "empresa": "SMARTWAY", "origen": "Nac.", "sector": "SOFTWARE", "gradoAvanc": "En Operación", "direccion": "CATULO CASTILLO 3072 PISO 3° OF 105", "direccion2": "CATULO CASTILLO 3072", "latitud": -34.635054, "longitud": -58.407196, "g_lat": -34.6351698, "g_lon": -58.4074437 }, "geometry": { "type": "Point", "coordinates": [ -58.407196, -34.635054 ] } },
{ "type": "Feature", "properties": { "nro": 150, "empresa": "SONDEOS", "origen": "Nac.", "sector": "SOFTWARE", "gradoAvanc": "En Operación", "direccion": "DR. PEDRO CHUTRO 3135 PISO 2°B.", "direccion2": "DR. PEDRO CHUTRO 3135", "latitud": -34.642325, "longitud": -58.406697, "g_lat": -34.6423478, "g_lon": -58.4066662 }, "geometry": { "type": "Point", "coordinates": [ -58.406697, -34.642325 ] } },
{ "type": "Feature", "properties": { "nro": 151, "empresa": "SYSTEMSCORP", "origen": "Nac.", "sector": "BPO", "gradoAvanc": "En Operación", "direccion": "DEL TIGRE 3867\/69", "direccion2": "DEL TIGRE 3867", "latitud": -34.645375, "longitud": -58.415508, "g_lat": -34.6453862, "g_lon": -58.4155777 }, "geometry": { "type": "Point", "coordinates": [ -58.415508, -34.645375 ] } },
{ "type": "Feature", "properties": { "nro": 153, "empresa": "BDO", "origen": "Nac.", "sector": "BPO", "gradoAvanc": "En Operación", "direccion": "RONDEAU 2664 PISO PB y 1.", "direccion2": "RONDEAU 2664", "latitud": -34.634976, "longitud": -58.400256, "g_lat": -34.6349489, "g_lon": -58.4003402 }, "geometry": { "type": "Point", "coordinates": [ -58.400256, -34.634976 ] } },
{ "type": "Feature", "properties": { "nro": 154, "empresa": "AGEN", "origen": "Nac.", "sector": "HARDWARE", "gradoAvanc": "En Operación", "direccion": "CORTEJARENA, JOSE A. 3205", "direccion2": "JOSE A CORTEJARENA 3205", "latitud": -34.643735, "longitud": -58.407431, "g_lat": -34.6437232, "g_lon": -58.407239 }, "geometry": { "type": "Point", "coordinates": [ -58.407431, -34.643735 ] } },
{ "type": "Feature", "properties": { "nro": 155, "empresa": "BPD SOLUTIONS", "origen": "Nac.", "sector": "SOFTWARE", "gradoAvanc": "En Operación", "direccion": "DEAN FUNES 2148", "direccion2": "DEAN FUNES 2148", "latitud": -34.636198, "longitud": -58.40385, "g_lat": -34.6362595, "g_lon": -58.4038305 }, "geometry": { "type": "Point", "coordinates": [ -58.40385, -34.636198 ] } },
{ "type": "Feature", "properties": { "nro": 156, "empresa": "CATALINAS CENTER", "origen": "Nac.", "sector": "BPO", "gradoAvanc": "En Obra", "direccion": "PATAGONES 2766", "direccion2": "PATAGONES 2766", "latitud": -34.63755, "longitud": -58.401189, "g_lat": -34.6376207, "g_lon": -58.4012756 }, "geometry": { "type": "Point", "coordinates": [ -58.401189, -34.63755 ] } },
{ "type": "Feature", "properties": { "nro": 157, "empresa": "ACTIVIA", "origen": "Nac.", "sector": "BPO", "gradoAvanc": "En Operación", "direccion": "CHICLANA 3580", "direccion2": "CHICLANA 3580", "latitud": -34.63649, "longitud": -58.414379, "g_lat": -34.6364723, "g_lon": -58.4143888 }, "geometry": { "type": "Point", "coordinates": [ -58.414379, -34.63649 ] } },
{ "type": "Feature", "properties": { "nro": 158, "empresa": "ADVANCED RESOURCES", "origen": "Nac.", "sector": "SOFTWARE", "gradoAvanc": "En Operación", "direccion": "RONDEAU 2520 OF.3", "direccion2": "RONDEAU 2520", "latitud": -34.634612, "longitud": -58.398177, "g_lat": -34.6345677, "g_lon": -58.3982191 }, "geometry": { "type": "Point", "coordinates": [ -58.398177, -34.634612 ] } },
{ "type": "Feature", "properties": { "nro": 159, "empresa": "SOLUCIONES INFORMATICAS INTEGRALES", "origen": "Nac.", "sector": "SOFTWARE", "gradoAvanc": "En Obra", "direccion": "CATULO CASTILLO 2633", "direccion2": "CATULO CASTILLO 2633", "latitud": -34.632817, "longitud": -58.400732, "g_lat": -34.6327397, "g_lon": -58.4007492 }, "geometry": { "type": "Point", "coordinates": [ -58.400732, -34.632817 ] } },
{ "type": "Feature", "properties": { "nro": 160, "empresa": "ITALTEL", "origen": "Nac.", "sector": "SOFTWARE", "gradoAvanc": "En Obra", "direccion": "PATAGONES 2937", "direccion2": "PATAGONES 2937", "latitud": -34.638074, "longitud": -58.40423, "g_lat": -34.6380375, "g_lon": -58.4041992 }, "geometry": { "type": "Point", "coordinates": [ -58.40423, -34.638074 ] } },
{ "type": "Feature", "properties": { "nro": 161, "empresa": "CLAWI", "origen": "Nac.", "sector": "SOFTWARE", "gradoAvanc": "En Operación", "direccion": "COLONIA 170", "direccion2": "COLONIA 170", "latitud": -34.637821, "longitud": -58.39804, "g_lat": -34.637823, "g_lon": -58.398128 }, "geometry": { "type": "Point", "coordinates": [ -58.39804, -34.637821 ] } },
{ "type": "Feature", "properties": { "nro": 162, "empresa": "DEDALORD", "origen": "Nac.", "sector": "SOFTWARE", "gradoAvanc": "En Operación", "direccion": "PEDRO CHUTRO 3135 PB A", "direccion2": "PEDRO CHUTRO 3135", "latitud": -34.642325, "longitud": -58.406697, "g_lat": -34.6423478, "g_lon": -58.4066662 }, "geometry": { "type": "Point", "coordinates": [ -58.406697, -34.642325 ] } },
{ "type": "Feature", "properties": { "nro": 163, "empresa": "GECSA", "origen": "Nac.", "sector": "SOFTWARE", "gradoAvanc": "En Operación", "direccion": "RONDEAU 2664 PISO 5B 1º.", "direccion2": "RONDEAU 2664", "latitud": -34.634976, "longitud": -58.400256, "g_lat": -34.6349489, "g_lon": -58.4003402 }, "geometry": { "type": "Point", "coordinates": [ -58.400256, -34.634976 ] } },
{ "type": "Feature", "properties": { "nro": 164, "empresa": "CANAL VIRTUAL", "origen": "Nac.", "sector": "SOFTWARE", "gradoAvanc": "En Operación", "direccion": "RONDEAU 2664 PISO 5B 2º.", "direccion2": "RONDEAU 2664", "latitud": -34.634976, "longitud": -58.400256, "g_lat": -34.6349489, "g_lon": -58.4003402 }, "geometry": { "type": "Point", "coordinates": [ -58.400256, -34.634976 ] } },
{ "type": "Feature", "properties": { "nro": 165, "empresa": "MICROSHENZHEN", "origen": "Nac.", "sector": "SOFTWARE", "gradoAvanc": "En Operación", "direccion": "RONDEAU 2664 PISO 5B 3º.", "direccion2": "RONDEAU 2664", "latitud": -34.634976, "longitud": -58.400256, "g_lat": -34.6349489, "g_lon": -58.4003402 }, "geometry": { "type": "Point", "coordinates": [ -58.400256, -34.634976 ] } },
{ "type": "Feature", "properties": { "nro": 166, "empresa": "ITBA", "origen": "Nac.", "sector": "EDUCACION", "gradoAvanc": "En Obra", "direccion": "LAVARDEN 389", "direccion2": "LAVARDEN 389", "latitud": -34.640852, "longitud": -58.401162, "g_lat": -34.6414269, "g_lon": -58.4010874 }, "geometry": { "type": "Point", "coordinates": [ -58.401162, -34.640852 ] } },
{ "type": "Feature", "properties": { "nro": 167, "empresa": "DUX DILIGENS\/TMN", "origen": "Nac.", "sector": "SOFTWARE", "gradoAvanc": "En Operación", "direccion": "CASEROS 3405 PISO 6.", "direccion2": "AV. CASEROS 3405", "latitud": -34.638397, "longitud": -58.413379, "g_lat": -34.6384366, "g_lon": -58.4133676 }, "geometry": { "type": "Point", "coordinates": [ -58.413379, -34.638397 ] } },
{ "type": "Feature", "properties": { "nro": 168, "empresa": "E-GATE", "origen": "Nac.", "sector": "SOFTWARE", "gradoAvanc": "En Operación", "direccion": "CASEROS 2862 PISO 1B.", "direccion2": "AV. CASEROS 2862", "latitud": -34.636776, "longitud": -58.403223, "g_lat": -34.6367716, "g_lon": -58.403375 }, "geometry": { "type": "Point", "coordinates": [ -58.403223, -34.636776 ] } },
{ "type": "Feature", "properties": { "nro": 169, "empresa": "THINK IT", "origen": "Nac.", "sector": "SOFTWARE", "gradoAvanc": "En Obra", "direccion": "CASEROS 2608 PISO 3A.", "direccion2": "AV. CASEROS 2608", "latitud": -34.636011, "longitud": -58.399064, "g_lat": -34.6359679, "g_lon": -58.3990648 }, "geometry": { "type": "Point", "coordinates": [ -58.399064, -34.636011 ] } },
{ "type": "Feature", "properties": { "nro": 170, "empresa": "PARADIGMA CONSULTORES", "origen": "Nac.", "sector": "BPO", "gradoAvanc": "En Obra", "direccion": "CASEROS 2608 PISO 2A.", "direccion2": "AV. CASEROS 2608", "latitud": -34.636011, "longitud": -58.399064, "g_lat": -34.6359679, "g_lon": -58.3990648 }, "geometry": { "type": "Point", "coordinates": [ -58.399064, -34.636011 ] } },
{ "type": "Feature", "properties": { "nro": 171, "empresa": "NETNIX", "origen": "Nac.", "sector": "BPO", "gradoAvanc": "En Operación", "direccion": "CASEROS 3405 PISO 7.", "direccion2": "AV. CASEROS 3405", "latitud": -34.638397, "longitud": -58.413379, "g_lat": -34.6384366, "g_lon": -58.4133676 }, "geometry": { "type": "Point", "coordinates": [ -58.413379, -34.638397 ] } },
{ "type": "Feature", "properties": { "nro": 172, "empresa": "VIAJO BIEN", "origen": "Nac.", "sector": "BPO", "gradoAvanc": "En Operación", "direccion": "LAVARDEN 157, PISO 2 y 3.", "direccion2": "LAVARDEN 157", "latitud": -34.638434, "longitud": -58.401718, "g_lat": -34.6382785, "g_lon": -58.4017181 }, "geometry": { "type": "Point", "coordinates": [ -58.401718, -34.638434 ] } },
{ "type": "Feature", "properties": { "nro": 173, "empresa": "ASATEJ", "origen": "Ext.", "sector": "BPO", "gradoAvanc": "En Operación", "direccion": "AV CASEROS 3301, PISO 5, 6, 7 y 8", "direccion2": "AV. CASEROS 3301", "latitud": -34.638097, "longitud": -58.411757, "g_lat": -34.6381435, "g_lon": -58.4117004 }, "geometry": { "type": "Point", "coordinates": [ -58.411757, -34.638097 ] } },
{ "type": "Feature", "properties": { "nro": 174, "empresa": "BEST DAY", "origen": "Ext.", "sector": "e-COMMERCE", "gradoAvanc": "En Obra", "direccion": "AV CASEROS 3301, PISO 3", "direccion2": "AV. CASEROS 3301", "latitud": -34.638097, "longitud": -58.411757, "g_lat": -34.6381435, "g_lon": -58.4117004 }, "geometry": { "type": "Point", "coordinates": [ -58.411757, -34.638097 ] } },
{ "type": "Feature", "properties": { "nro": 175, "empresa": "USAL", "origen": "Nac.", "sector": "EDUCACION", "gradoAvanc": "En Obra", "direccion": "ZABALETA 330\/332\/348", "direccion2": "ZABALETA 330", "latitud": -34.641057, "longitud": -58.402778, "g_lat": -34.6407815, "g_lon": -58.402944 }, "geometry": { "type": "Point", "coordinates": [ -58.402778, -34.641057 ] } },
{ "type": "Feature", "properties": { "nro": 176, "empresa": "VULSAI-MANGO", "origen": "Nac.", "sector": "SOFTWARE", "gradoAvanc": "En Operación", "direccion": "PATAGONES 2827, PISO 3", "direccion2": "PATAGONES 2827", "latitud": -34.637695, "longitud": -58.402283, "g_lat": -34.637673, "g_lon": -58.402214 }, "geometry": { "type": "Point", "coordinates": [ -58.402283, -34.637695 ] } },
{ "type": "Feature", "properties": { "nro": 177, "empresa": "OPTICOM", "origen": "Nac.", "sector": "SOFTWARE", "gradoAvanc": "En Operación", "direccion": "MANUEL GARCIA 233", "direccion2": "MANUEL GARCIA 233", "latitud": -34.638559, "longitud": -58.396404, "g_lat": -34.6383636, "g_lon": -58.3964377 }, "geometry": { "type": "Point", "coordinates": [ -58.396404, -34.638559 ] } },
{ "type": "Feature", "properties": { "nro": 178, "empresa": "QUALITY WORK", "origen": "Nac.", "sector": "SOFTWARE", "gradoAvanc": "En Operación", "direccion": "Av. Caseros 2862, PISO 3 A", "direccion2": "AV. CASEROS 2862", "latitud": -34.636776, "longitud": -58.403223, "g_lat": -34.6367716, "g_lon": -58.403375 }, "geometry": { "type": "Point", "coordinates": [ -58.403223, -34.636776 ] } },
{ "type": "Feature", "properties": { "nro": 179, "empresa": "SMS", "origen": "Nac.", "sector": "BPO", "gradoAvanc": "En Obra", "direccion": "Av. Caseros 2602, piso 1", "direccion2": "AV. CASEROS 2602", "latitud": -34.636011, "longitud": -58.399064, "g_lat": -34.6359238, "g_lon": -58.3988878 }, "geometry": { "type": "Point", "coordinates": [ -58.399064, -34.636011 ] } },
{ "type": "Feature", "properties": { "nro": 180, "empresa": "CRYSTALIS\/SEIDOR", "origen": "Ext.", "sector": "BPO", "gradoAvanc": "En Obra", "direccion": "AV. CASEROS 2602, PISO 4,5", "direccion2": "AV. CASEROS 2602", "latitud": -34.636011, "longitud": -58.399064, "g_lat": -34.6359238, "g_lon": -58.3988878 }, "geometry": { "type": "Point", "coordinates": [ -58.399064, -34.636011 ] } },
{ "type": "Feature", "properties": { "nro": 181, "empresa": "LABOR CORPORATIVA", "origen": "Nac.", "sector": "BPO", "gradoAvanc": "En Operación", "direccion": "LUNA 17. PiISO  3, 4,  5", "direccion2": "LUNA 17", "latitud": -34.636532, "longitud": -58.400428, "g_lat": -34.6365061, "g_lon": -58.4003738 }, "geometry": { "type": "Point", "coordinates": [ -58.400428, -34.636532 ] } },
{ "type": "Feature", "properties": { "nro": 182, "empresa": "AIR COMPUTERS", "origen": "Nac.", "sector": "HARDWARE", "gradoAvanc": "En obra", "direccion": "ANCASTE  3258", "direccion2": "ANCASTE  3258", "latitud": -34.648267, "longitud": -58.407538, "g_lat": -34.6482929, "g_lon": -58.4071423 }, "geometry": { "type": "Point", "coordinates": [ -58.407538, -34.648267 ] } },
{ "type": "Feature", "properties": { "nro": 183, "empresa": "VALIJA CHICA", "origen": "Nac.", "sector": "SOFTWARE", "gradoAvanc": "En Operación", "direccion": "CATULO CASTILLO  2960", "direccion2": "CATULO CASTILLO  2960", "latitud": -34.634627, "longitud": -58.405197, "g_lat": -34.6346343, "g_lon": -58.4052147 }, "geometry": { "type": "Point", "coordinates": [ -58.405197, -34.634627 ] } },
{ "type": "Feature", "properties": { "nro": 184, "empresa": "DELTA 3", "origen": "Nac.", "sector": "SOFTWARE", "gradoAvanc": "En Operación", "direccion": "JUJUY 1875, PISO 5", "direccion2": "JUJUY 1875", "latitud": -34.632356, "longitud": -58.400354, "g_lat": -34.6323198, "g_lon": -58.4003103 }, "geometry": { "type": "Point", "coordinates": [ -58.400354, -34.632356 ] } },
{ "type": "Feature", "properties": { "nro": 185, "empresa": "NEURAL SOFT", "origen": "Nac.", "sector": "SOFTWARE", "gradoAvanc": "En Operación", "direccion": "AV. CASEROS 3563, PISO 9", "direccion2": "AV. CASEROS 3563", "latitud": -34.638755, "longitud": -58.415421, "g_lat": -34.6387744, "g_lon": -58.415381 }, "geometry": { "type": "Point", "coordinates": [ -58.415421, -34.638755 ] } },
{ "type": "Feature", "properties": { "nro": 186, "empresa": "WORLDSYS", "origen": "Nac.", "sector": "SOFTWARE", "gradoAvanc": "En Operación", "direccion": "AV. JUJUY 2073", "direccion2": "AV. JUJUY 2073", "latitud": -34.634417, "longitud": -58.399532, "g_lat": -34.634497, "g_lon": -58.3995012 }, "geometry": { "type": "Point", "coordinates": [ -58.399532, -34.634417 ] } },
{ "type": "Feature", "properties": { "nro": 187, "empresa": "RECURSOS  EN DESARROLLO", "origen": "Nac.", "sector": "SOFTWARE", "gradoAvanc": "En Operación", "direccion": "LUNA 17, PISO 1, A", "direccion2": "LUNA 17", "latitud": -34.636532, "longitud": -58.400428, "g_lat": -34.6365061, "g_lon": -58.4003738 }, "geometry": { "type": "Point", "coordinates": [ -58.400428, -34.636532 ] } },
{ "type": "Feature", "properties": { "nro": 188, "empresa": "PROVINCANJE", "origen": "Nac.", "sector": "SOFTWARE", "gradoAvanc": "En Operación", "direccion": "Av. Caseros 2920", "direccion2": "AV. CASEROS 2920", "latitud": -34.636928, "longitud": -58.404089, "g_lat": -34.6368742, "g_lon": -58.4040733 }, "geometry": { "type": "Point", "coordinates": [ -58.404089, -34.636928 ] } },
{ "type": "Feature", "properties": { "nro": 189, "empresa": "D-TECH", "origen": "Nac.", "sector": "SOFTWARE", "gradoAvanc": "En obra", "direccion": "Corrales Viejos 80", "direccion2": "CORRALES VIEJOS 80", "latitud": -34.637945, "longitud": -58.404977, "g_lat": -34.6379206, "g_lon": -58.4050778 }, "geometry": { "type": "Point", "coordinates": [ -58.404977, -34.637945 ] } },
{ "type": "Feature", "properties": { "nro": 190, "empresa": "SMS SRL", "origen": "Nac.", "sector": "BPO", "gradoAvanc": "En Obra", "direccion": "Av. Caseros 2602, piso 1", "direccion2": "AV. CASEROS 2602", "latitud": -34.636011, "longitud": -58.399064, "g_lat": -34.6359238, "g_lon": -58.3988878 }, "geometry": { "type": "Point", "coordinates": [ -58.399064, -34.636011 ] } },
{ "type": "Feature", "properties": { "nro": 191, "empresa": "BITOPIA", "origen": "Nac.", "sector": "SOFTWARE", "gradoAvanc": "En Operación", "direccion": "Patagones 2535", "direccion2": "PATAGONES 2535", "latitud": -34.636789, "longitud": -58.39767, "g_lat": -34.6367253, "g_lon": -58.3976673 }, "geometry": { "type": "Point", "coordinates": [ -58.39767, -34.636789 ] } },
{ "type": "Feature", "properties": { "nro": 192, "empresa": "FUSAP", "origen": "Nac.", "sector": "software", "gradoAvanc": "En Operación", "direccion": "Av.Caseros 2862 3°B", "direccion2": "AV. CASEROS 2862", "latitud": -34.636776, "longitud": -58.403223, "g_lat": -34.6367716, "g_lon": -58.403375 }, "geometry": { "type": "Point", "coordinates": [ -58.403223, -34.636776 ] } },
{ "type": "Feature", "properties": { "nro": 193, "empresa": "SOFTOFICE", "origen": "Nac.", "sector": "SOFTWARE", "gradoAvanc": "En Operación", "direccion": "Luna 17, piso 6", "direccion2": "LUNA 17", "latitud": -34.636532, "longitud": -58.400428, "g_lat": -34.6365061, "g_lon": -58.4003738 }, "geometry": { "type": "Point", "coordinates": [ -58.400428, -34.636532 ] } },
{ "type": "Feature", "properties": { "nro": 194, "empresa": "MISTAPEO", "origen": "Nac.", "sector": "SOFTWARE", "gradoAvanc": "En Operación", "direccion": "Pedro CHUTRO 3260", "direccion2": "PEDRO CHUTRO 3260", "latitud": -34.642641, "longitud": -58.408293, "g_lat": -34.6428088, "g_lon": -58.4083286 }, "geometry": { "type": "Point", "coordinates": [ -58.408293, -34.642641 ] } },
{ "type": "Feature", "properties": { "nro": 195, "empresa": "TTS", "origen": "Nac.", "sector": "BPO", "gradoAvanc": "En Operación", "direccion": "Av. Caseros 3563, PISO 3 y 4", "direccion2": "AV. CASEROS 3563", "latitud": -34.638755, "longitud": -58.415421, "g_lat": -34.6387744, "g_lon": -58.415381 }, "geometry": { "type": "Point", "coordinates": [ -58.415421, -34.638755 ] } },
{ "type": "Feature", "properties": { "nro": 196, "empresa": "PLANEX", "origen": "Nac.", "sector": "SOFTWARE", "gradoAvanc": "En Operación", "direccion": "Patagones 2737", "direccion2": "PATAGONES 2737", "latitud": -34.637375, "longitud": -58.400777, "g_lat": -34.6373476, "g_lon": -58.4007834 }, "geometry": { "type": "Point", "coordinates": [ -58.400777, -34.637375 ] } },
{ "type": "Feature", "properties": { "nro": 197, "empresa": "SOFTING", "origen": "Nac.", "sector": "SOFTWARE", "gradoAvanc": "En Operación", "direccion": "Av. Caseros 2602, PISO 1", "direccion2": "AV. CASEROS 2602", "latitud": -34.636011, "longitud": -58.399064, "g_lat": -34.6359238, "g_lon": -58.3988878 }, "geometry": { "type": "Point", "coordinates": [ -58.399064, -34.636011 ] } },
{ "type": "Feature", "properties": { "nro": 198, "empresa": "IMR", "origen": "Nac.", "sector": "SOFTWARE", "gradoAvanc": "En Obra", "direccion": "Av. Caseros 2602, piso 6", "direccion2": "AV. CASEROS 2602", "latitud": -34.636011, "longitud": -58.399064, "g_lat": -34.6359238, "g_lon": -58.3988878 }, "geometry": { "type": "Point", "coordinates": [ -58.399064, -34.636011 ] } },
{ "type": "Feature", "properties": { "nro": 199, "empresa": "CONSENSUS", "origen": "Nac.", "sector": "SOFTWARE", "gradoAvanc": "En Operación", "direccion": "Av. Caseros 3301, PISO 2", "direccion2": "AV. CASEROS 3301", "latitud": -34.638097, "longitud": -58.411757, "g_lat": -34.6381435, "g_lon": -58.4117004 }, "geometry": { "type": "Point", "coordinates": [ -58.411757, -34.638097 ] } },
{ "type": "Feature", "properties": { "nro": 200, "empresa": "DOCUMENTOS ADUANEROS", "origen": "Nac.", "sector": "SOFTWARE", "gradoAvanc": "En Operación", "direccion": "La Rioja 2011", "direccion2": "LA RIOJA 2011", "latitud": -34.634845, "longitud": -58.405875, "g_lat": -34.6349557, "g_lon": -58.4059878 }, "geometry": { "type": "Point", "coordinates": [ -58.405875, -34.634845 ] } },
{ "type": "Feature", "properties": { "nro": 201, "empresa": "CRONON", "origen": "Nac.", "sector": "SOFTWARE", "gradoAvanc": "En Operación", "direccion": "Luna 424", "direccion2": "LUNA 424", "latitud": -34.64159, "longitud": -58.398121, "g_lat": -34.641628, "g_lon": -58.3980746 }, "geometry": { "type": "Point", "coordinates": [ -58.398121, -34.64159 ] } },
{ "type": "Feature", "properties": { "nro": 202, "empresa": "INTERCONNECT", "origen": "Nac.", "sector": "SOFTWARE", "gradoAvanc": "En Operación", "direccion": "Av. Caseros 3563, piso 8 of. 16", "direccion2": "AV. CASEROS 3563", "latitud": -34.638755, "longitud": -58.415421, "g_lat": -34.6387744, "g_lon": -58.415381 }, "geometry": { "type": "Point", "coordinates": [ -58.415421, -34.638755 ] } },
{ "type": "Feature", "properties": { "nro": 204, "empresa": "STEFANINI", "origen": "Ext.", "sector": "BPO", "gradoAvanc": "En operación", "direccion": "Lavarden 157 piso 2 oficina 2", "direccion2": "LAVARDEN 157", "latitud": -34.638434, "longitud": -58.401718, "g_lat": -34.6382785, "g_lon": -58.4017181 }, "geometry": { "type": "Point", "coordinates": [ -58.401718, -34.638434 ] } },
{ "type": "Feature", "properties": { "nro": 205, "empresa": "ELECTROPAGOS", "origen": "Nac.", "sector": "SOFTWARE", "gradoAvanc": "En Operación", "direccion": "Arriola  27", "direccion2": "ARRIOLA  27", "latitud": -34.637033, "longitud": -58.402936, "g_lat": -34.637079, "g_lon": -58.4029218 }, "geometry": { "type": "Point", "coordinates": [ -58.402936, -34.637033 ] } },
{ "type": "Feature", "properties": { "nro": 206, "empresa": "REVIRTUAL", "origen": "Nac.", "sector": "SOFTWARE", "gradoAvanc": "En Operación", "direccion": "Pepiri 286, PISO 1", "direccion2": "PEPIRI 286", "latitud": -34.641504, "longitud": -58.409031, "g_lat": -34.6414794, "g_lon": -58.409062 }, "geometry": { "type": "Point", "coordinates": [ -58.409031, -34.641504 ] } },
{ "type": "Feature", "properties": { "nro": 207, "empresa": "EL SERVER", "origen": "Nac.", "sector": "SOFTWARE", "gradoAvanc": "En Obra", "direccion": "Av: CASEROS 3301 PISO 4, A", "direccion2": "AV. CASEROS 3301", "latitud": -34.638097, "longitud": -58.411757, "g_lat": -34.6381435, "g_lon": -58.4117004 }, "geometry": { "type": "Point", "coordinates": [ -58.411757, -34.638097 ] } },
{ "type": "Feature", "properties": { "nro": 208, "empresa": "CANEPA, KOPEC Y ASOC.", "origen": "Nac.", "sector": "BPO", "gradoAvanc": "En Obra", "direccion": "Patagones 2937  Piso 2", "direccion2": "PATAGONES 2937", "latitud": -34.638074, "longitud": -58.40423, "g_lat": -34.6380375, "g_lon": -58.4041992 }, "geometry": { "type": "Point", "coordinates": [ -58.40423, -34.638074 ] } },
{ "type": "Feature", "properties": { "nro": 209, "empresa": "HORWATH CONSULTING", "origen": "Nac.", "sector": "BPO", "gradoAvanc": "En Obra", "direccion": "Patagones 2937 PB", "direccion2": "PATAGONES 2937", "latitud": -34.638074, "longitud": -58.40423, "g_lat": -34.6380375, "g_lon": -58.4041992 }, "geometry": { "type": "Point", "coordinates": [ -58.40423, -34.638074 ] } },
{ "type": "Feature", "properties": { "nro": 210, "empresa": "PRISMA MEDIOS DE PAGO SA", "origen": "Nac.", "sector": "SOFTWARE", "gradoAvanc": "En Obra", "direccion": "Uspallata 2802", "direccion2": "USPALLATA 2802", "latitud": -34.639093, "longitud": -58.402426, "g_lat": -34.6390812, "g_lon": -58.4016547 }, "geometry": { "type": "Point", "coordinates": [ -58.402426, -34.639093 ] } },
{ "type": "Feature", "properties": { "nro": 211, "empresa": "KOMPENDIUM", "origen": "Nac.", "sector": "BPO", "gradoAvanc": "En Obra", "direccion": "Patagones 2937 PISO 4", "direccion2": "PATAGONES 2937", "latitud": -34.638074, "longitud": -58.40423, "g_lat": -34.6380375, "g_lon": -58.4041992 }, "geometry": { "type": "Point", "coordinates": [ -58.40423, -34.638074 ] } },
{ "type": "Feature", "properties": { "nro": 212, "empresa": "HMSI", "origen": "Nac.", "sector": "BPO", "gradoAvanc": "En Obra", "direccion": "Patagones 2937 PISO 6", "direccion2": "PATAGONES 2937", "latitud": -34.638074, "longitud": -58.40423, "g_lat": -34.6380375, "g_lon": -58.4041992 }, "geometry": { "type": "Point", "coordinates": [ -58.40423, -34.638074 ] } },
{ "type": "Feature", "properties": { "nro": 213, "empresa": "IATASA", "origen": "Nac.", "sector": "INGENIERIA", "gradoAvanc": "En Obra", "direccion": "Av. Caseros 3301, Piso 2 B y 4 B", "direccion2": "AV. CASEROS 3301", "latitud": -34.638097, "longitud": -58.411757, "g_lat": -34.6381435, "g_lon": -58.4117004 }, "geometry": { "type": "Point", "coordinates": [ -58.411757, -34.638097 ] } },
{ "type": "Feature", "properties": { "nro": 214, "empresa": "EBOX S.A.", "origen": "Nac.", "sector": "SOFTWARE", "gradoAvanc": "En Operación", "direccion": "Alberti 1856", "direccion2": "ALBERTI 1856", "latitud": -34.631658, "longitud": -58.398898, "g_lat": -34.6317419, "g_lon": -58.3989469 }, "geometry": { "type": "Point", "coordinates": [ -58.398898, -34.631658 ] } },
{ "type": "Feature", "properties": { "nro": 215, "empresa": "IT PATAGONIA", "origen": "Nac.", "sector": "SOFTWARE", "gradoAvanc": "En Obra", "direccion": "A. Caseros 3602, piso 6", "direccion2": "AV. CASEROS 3602", "latitud": -34.638984, "longitud": -58.415982, "g_lat": -34.6389011, "g_lon": -58.4159173 }, "geometry": { "type": "Point", "coordinates": [ -58.415982, -34.638984 ] } },
{ "type": "Feature", "properties": { "nro": 216, "empresa": "TALLION", "origen": "Nac.", "sector": "SOFTWARE", "gradoAvanc": "En Operación", "direccion": "Rondeau 3367", "direccion2": "RONDEAU 3367", "latitud": -34.637009, "longitud": -58.411642, "g_lat": -34.6370482, "g_lon": -58.4115755 }, "geometry": { "type": "Point", "coordinates": [ -58.411642, -34.637009 ] } },
{ "type": "Feature", "properties": { "nro": 217, "empresa": "DELLOITE", "origen": "Nac.", "sector": "BPO", "gradoAvanc": "En Obra", "direccion": "Av. Caseros 3563, piso 4 y 5", "direccion2": "AV. CASEROS 3563", "latitud": -34.638755, "longitud": -58.415421, "g_lat": -34.6387744, "g_lon": -58.415381 }, "geometry": { "type": "Point", "coordinates": [ -58.415421, -34.638755 ] } },
{ "type": "Feature", "properties": { "nro": 218, "empresa": "CARDINAL", "origen": "Nac.", "sector": "SOFTWARE", "gradoAvanc": "En Obra", "direccion": "Av. Caseros 3039, piso 8", "direccion2": "AV. CASEROS 3039", "latitud": -34.63716, "longitud": -58.406299, "g_lat": -34.6372329, "g_lon": -58.406333 }, "geometry": { "type": "Point", "coordinates": [ -58.406299, -34.63716 ] } },
{ "type": "Feature", "properties": { "nro": 219, "empresa": "DIGITAL WEST", "origen": "Nac.", "sector": "SOFTWARE", "gradoAvanc": "En Obra", "direccion": " Rondeau 2858", "direccion2": "RONDEAU 2858", "latitud": -34.635468, "longitud": -58.403502, "g_lat": -34.6354793, "g_lon": -58.4034663 }, "geometry": { "type": "Point", "coordinates": [ -58.403502, -34.635468 ] } },
{ "type": "Feature", "properties": { "nro": 220, "empresa": "TRANS", "origen": "Nac.", "sector": "SOFTWARE", "gradoAvanc": "En obra", "direccion": "Av. Caseros 2602, piso 10", "direccion2": "AV. CASEROS 2602", "latitud": -34.636011, "longitud": -58.399064, "g_lat": -34.6359238, "g_lon": -58.3988878 }, "geometry": { "type": "Point", "coordinates": [ -58.399064, -34.636011 ] } },
{ "type": "Feature", "properties": { "nro": 221, "empresa": "SISTEMAS OPERATIVOS", "origen": "Nac.", "sector": "BPO", "gradoAvanc": "En Operación", "direccion": "Rondeau 3155", "direccion2": "RONDEAU 3155", "latitud": -34.636447, "longitud": -58.408358, "g_lat": -34.6365085, "g_lon": -58.4084217 }, "geometry": { "type": "Point", "coordinates": [ -58.408358, -34.636447 ] } },
{ "type": "Feature", "properties": { "nro": 222, "empresa": "CDSS SA", "origen": "Nac.", "sector": "SOFTWARE", "gradoAvanc": "En Obra", "direccion": "Av. Caseros 3039, piso 2C", "direccion2": "AV. CASEROS 3039", "latitud": -34.63716, "longitud": -58.406299, "g_lat": -34.6372329, "g_lon": -58.406333 }, "geometry": { "type": "Point", "coordinates": [ -58.406299, -34.63716 ] } },
{ "type": "Feature", "properties": { "nro": 223, "empresa": "NEXAPOOL", "origen": "Nac.", "sector": "SOFTWARE", "gradoAvanc": "En Obra", "direccion": "Av. Caseros 3039, piso 2A", "direccion2": "AV. CASEROS 3039", "latitud": -34.63716, "longitud": -58.406299, "g_lat": -34.6372329, "g_lon": -58.406333 }, "geometry": { "type": "Point", "coordinates": [ -58.406299, -34.63716 ] } },
{ "type": "Feature", "properties": { "nro": 224, "empresa": "VOD ARGENTINA SA", "origen": "Nac.", "sector": "SOFTWARE", "gradoAvanc": "En obra", "direccion": "Av. Caseros 3039, piso 2B", "direccion2": "AV. CASEROS 3039", "latitud": -34.63716, "longitud": -58.406299, "g_lat": -34.6372329, "g_lon": -58.406333 }, "geometry": { "type": "Point", "coordinates": [ -58.406299, -34.63716 ] } },
{ "type": "Feature", "properties": { "nro": 225, "empresa": "TDI", "origen": "Nac.", "sector": "SOFTWARE", "gradoAvanc": "En Obra", "direccion": "Av. Caseros 2602, piso 3", "direccion2": "AV. CASEROS 2602", "latitud": -34.636011, "longitud": -58.399064, "g_lat": -34.6359238, "g_lon": -58.3988878 }, "geometry": { "type": "Point", "coordinates": [ -58.399064, -34.636011 ] } },
{ "type": "Feature", "properties": { "nro": 226, "empresa": "IDEA BIZ (OPEN IT)", "origen": "Nac.", "sector": "SOFTWARE", "gradoAvanc": "En Obra", "direccion": "Av. Jujuy 2156 P3 uf A", "direccion2": "AV. JUJUY 2156", "latitud": -34.635305, "longitud": -58.399003, "g_lat": -34.6354587, "g_lon": -58.3990446 }, "geometry": { "type": "Point", "coordinates": [ -58.399003, -34.635305 ] } },
{ "type": "Feature", "properties": { "nro": 227, "empresa": "PATRICIOS PARK BUSINESS SOLUTIONS", "origen": "Nac.", "sector": "BPO", "gradoAvanc": "En Operación", "direccion": "Av. Jujuy 1963 P4 uf A", "direccion2": "AV. JUJUY 1963", "latitud": -34.633398, "longitud": -58.399942, "g_lat": -34.6333204, "g_lon": -58.3999378 }, "geometry": { "type": "Point", "coordinates": [ -58.399942, -34.633398 ] } },
{ "type": "Feature", "properties": { "nro": 228, "empresa": "BAIRESNET", "origen": "Nac.", "sector": "SOFTWARE", "gradoAvanc": "En Operación", "direccion": "Av. Jujuy 1963 P5 uf B", "direccion2": "AV. JUJUY 1963", "latitud": -34.633398, "longitud": -58.399942, "g_lat": -34.6333204, "g_lon": -58.3999378 }, "geometry": { "type": "Point", "coordinates": [ -58.399942, -34.633398 ] } },
{ "type": "Feature", "properties": { "nro": 229, "empresa": "TELECENTRO", "origen": "Nac.", "sector": "SOFTWARE", "gradoAvanc": "En obra", "direccion": "Lavarden 153", "direccion2": "LAVARDEN 153", "latitud": -34.638352, "longitud": -58.401737, "g_lat": -34.6382322, "g_lon": -58.4017295 }, "geometry": { "type": "Point", "coordinates": [ -58.401737, -34.638352 ] } },
{ "type": "Feature", "properties": { "nro": 230, "empresa": "CAECE\/CAMARA ARGENTINA DE COMERCIO", "origen": "Nac.", "sector": "EDUCACION", "gradoAvanc": "En Obra", "direccion": "Pedro Chutro 2851", "direccion2": "PEDRO CHUTRO 2851", "latitud": -34.641749, "longitud": -58.401803, "g_lat": -34.6416872, "g_lon": -58.4017248 }, "geometry": { "type": "Point", "coordinates": [ -58.401803, -34.641749 ] } },
{ "type": "Feature", "properties": { "nro": 231, "empresa": "TECNOSOFTWARE SA", "origen": "Nac.", "sector": "SOFTWARE", "gradoAvanc": "En Obra", "direccion": "Av. Chiclana 3345, 2 cuerpo, 3 A", "direccion2": "AV. CHICLANA 3345", "latitud": -34.63447, "longitud": -58.411518, "g_lat": -34.6344402, "g_lon": -58.4119357 }, "geometry": { "type": "Point", "coordinates": [ -58.411518, -34.63447 ] } },
{ "type": "Feature", "properties": { "nro": 232, "empresa": "TSOFT SA", "origen": "Nac.", "sector": "SOFTWARE", "gradoAvanc": "En Obra", "direccion": "Av. Chiclana 3345, 2 cuerpo, 3 B", "direccion2": "AV. CHICLANA 3345", "latitud": -34.63447, "longitud": -58.411518, "g_lat": -34.6344402, "g_lon": -58.4119357 }, "geometry": { "type": "Point", "coordinates": [ -58.411518, -34.63447 ] } },
{ "type": "Feature", "properties": { "nro": 233, "empresa": "ISBAN", "origen": "Ext.", "sector": "SOFTWARE", "gradoAvanc": "En Obra", "direccion": "Uspallata 2953", "direccion2": "USPALLATA 2953", "latitud": -34.639371, "longitud": -58.404205, "g_lat": -34.6393958, "g_lon": -58.4042745 }, "geometry": { "type": "Point", "coordinates": [ -58.404205, -34.639371 ] } },
{ "type": "Feature", "properties": { "nro": 234, "empresa": "EDS", "origen": "Nac.", "sector": "SOFTWARE", "gradoAvanc": "En Obra", "direccion": "Lavardén 153", "direccion2": "LAVARDEN 153", "latitud": -34.638352, "longitud": -58.401737, "g_lat": -34.6382322, "g_lon": -58.4017295 }, "geometry": { "type": "Point", "coordinates": [ -58.401737, -34.638352 ] } },
{ "type": "Feature", "properties": { "nro": 235, "empresa": "WWW:COM:AR", "origen": "Nac.", "sector": "SOFTWARE", "gradoAvanc": "En Obra", "direccion": "Luna 17", "direccion2": "LUNA 17", "latitud": -34.636532, "longitud": -58.400428, "g_lat": -34.6365061, "g_lon": -58.4003738 }, "geometry": { "type": "Point", "coordinates": [ -58.400428, -34.636532 ] } },
{ "type": "Feature", "properties": { "nro": 236, "empresa": "ATOS ARGENTINA S.A.", "origen": "Ext.", "sector": "SOFTWARE", "gradoAvanc": "En Obra", "direccion": "Virrey Liniers 2240", "direccion2": "VIRREY LINIERS 2240", "latitud": -34.636364, "longitud": -58.412036, "g_lat": -34.6363823, "g_lon": -58.4120768 }, "geometry": { "type": "Point", "coordinates": [ -58.412036, -34.636364 ] } },
{ "type": "Feature", "properties": { "nro": 237, "empresa": "GLOBAL VIEW", "origen": "Nac.", "sector": "SOFTWARE", "gradoAvanc": "En Operación", "direccion": "Rondeau 2145", "direccion2": "RONDEAU 2145", "latitud": -34.633303, "longitud": -58.392937, "g_lat": -34.6339303, "g_lon": -58.3953189 }, "geometry": { "type": "Point", "coordinates": [ -58.392937, -34.633303 ] } },
{ "type": "Feature", "properties": { "nro": 238, "empresa": "INTERGRABO", "origen": "Nac.", "sector": "SOFTWARE", "gradoAvanc": "En Operación", "direccion": "Rondeau 3466", "direccion2": "RONDEAU 3466", "latitud": -34.637133, "longitud": -58.4129, "g_lat": -34.6371032, "g_lon": -58.4129495 }, "geometry": { "type": "Point", "coordinates": [ -58.4129, -34.637133 ] } },
{ "type": "Feature", "properties": { "nro": 239, "empresa": "DATAWISE S.A.", "origen": "Nac.", "sector": "SOFTWARE", "gradoAvanc": "En Obra", "direccion": "15 de Noviembre de 1889 n°2573", "direccion2": "15 DE NOVIEMBRE DE 1889 2573", "latitud": -34.633582, "longitud": -58.399308, "g_lat": -34.6335629, "g_lon": -58.3992846 }, "geometry": { "type": "Point", "coordinates": [ -58.399308, -34.633582 ] } },
{ "type": "Feature", "properties": { "nro": 240, "empresa": "Grupo Recaudador S.A", "origen": "Nac.", "sector": "SOFTWARE", "gradoAvanc": "En obra", "direccion": "Rondeau 2858", "direccion2": "RONDEAU 2858", "latitud": -34.635468, "longitud": -58.403502, "g_lat": -34.6354793, "g_lon": -58.4034663 }, "geometry": { "type": "Point", "coordinates": [ -58.403502, -34.635468 ] } },
{ "type": "Feature", "properties": { "nro": 241, "empresa": "Multivirtual S.A", "origen": "Nac.", "sector": "SOFTWARE", "gradoAvanc": "En obra", "direccion": "Rondeau 2858", "direccion2": "RONDEAU 2858", "latitud": -34.635468, "longitud": -58.403502, "g_lat": -34.6354793, "g_lon": -58.4034663 }, "geometry": { "type": "Point", "coordinates": [ -58.403502, -34.635468 ] } },
{ "type": "Feature", "properties": { "nro": 242, "empresa": "SEAC", "origen": "Nac.", "sector": "SOFTWARE", "gradoAvanc": "En obra", "direccion": "Caseros 3392, 2 B", "direccion2": "AV. CASEROS 3392", "latitud": -34.638467, "longitud": -58.412944, "g_lat": -34.638501, "g_lon": -58.4129369 }, "geometry": { "type": "Point", "coordinates": [ -58.412944, -34.638467 ] } },
{ "type": "Feature", "properties": { "nro": 243, "empresa": "RGP", "origen": "Nac.", "sector": "SOFTWARE", "gradoAvanc": "En obra", "direccion": "Caseros 3392, 2 A", "direccion2": "AV. CASEROS 3392", "latitud": -34.638467, "longitud": -58.412944, "g_lat": -34.638501, "g_lon": -58.4129369 }, "geometry": { "type": "Point", "coordinates": [ -58.412944, -34.638467 ] } },
{ "type": "Feature", "properties": { "nro": 244, "empresa": "PREPAY", "origen": "Nac.", "sector": "SOFTWARE", "gradoAvanc": "En Operación", "direccion": "Rondeau 2520, 4to A", "direccion2": "RONDEAU 2520", "latitud": -34.634612, "longitud": -58.398177, "g_lat": -34.6345677, "g_lon": -58.3982191 }, "geometry": { "type": "Point", "coordinates": [ -58.398177, -34.634612 ] } },
{ "type": "Feature", "properties": { "nro": 245, "empresa": "PRAGMATICA TECHNOLOGIES S.A.", "origen": "Nac.", "sector": "SOFTWARE", "gradoAvanc": "En obra", "direccion": "Almafuerte 63, 4to Piso", "direccion2": "ALMAFUERTE 63", "latitud": -34.639428, "longitud": -58.411851, "g_lat": -34.6390507, "g_lon": -58.4116163 }, "geometry": { "type": "Point", "coordinates": [ -58.411851, -34.639428 ] } }
]
}
